[
    {
        "name": "Abborrträsk",
        "lon": "19.4105748885",
        "id": "ABB",
        "lat": "65.4464510756"
    },
    {
        "name": "Abisko turiststation",
        "lon": "18.7832603441293",
        "id": "AKT",
        "lat": "68.3573162388287"
    },
    {
        "name": "Abisko Östra",
        "lon": "18.8303462061855",
        "id": "AK",
        "lat": "68.3486410787352"
    },
    {
        "name": "Aga",
        "lon": "18.1564760096",
        "id": "WAGA",
        "lat": "59.3462964478"
    },
    {
        "name": "Agnesberg",
        "lon": "12.0071260888753",
        "id": "AGB",
        "lat": "57.7810535929675"
    },
    {
        "name": "Aitik",
        "lon": "20.7682359514332",
        "id": "AIK",
        "lat": "67.0740146635725"
    },
    {
        "name": "Alby",
        "lon": "15.4747003405014",
        "id": "AY",
        "lat": "62.4901484354078"
    },
    {
        "name": "Aleholm",
        "lon": "14.6634629976291",
        "id": "AHM",
        "lat": "57.3982166976919"
    },
    {
        "name": "Alfta",
        "lon": "16.0713397855704",
        "id": "AFT",
        "lat": "61.3455456340774"
    },
    {
        "name": "Algutsgården",
        "lon": "12.6518699600939",
        "id": "AGG",
        "lat": "57.9881362950378"
    },
    {
        "name": "Alingsås",
        "lon": "12.5321854461032",
        "id": "A",
        "lat": "57.9269051674179"
    },
    {
        "name": "Alléparken",
        "lon": "17.9739876031",
        "id": "WALL",
        "lat": "59.3286461263"
    },
    {
        "name": "Almedal",
        "lon": "12.0039923097205",
        "id": "AM",
        "lat": "57.6840289710905"
    },
    {
        "name": "Almnäs",
        "lon": "17.5078028087881",
        "id": "ALÄ",
        "lat": "59.1694041474975"
    },
    {
        "name": "Almunge",
        "lon": "18.0444693850",
        "id": "XALG",
        "lat": "59.8759455052"
    },
    {
        "name": "Almvik",
        "lon": "16.4663105102346",
        "id": "AVK",
        "lat": "57.8290562275263"
    },
    {
        "name": "Altorp",
        "lon": "18.0728472012",
        "id": "XALP",
        "lat": "59.4108856788"
    },
    {
        "name": "Alvesta",
        "lon": "14.5561917566633",
        "id": "AV",
        "lat": "56.8980219278963"
    },
    {
        "name": "Alvhem",
        "lon": "12.1576850302348",
        "id": "ALH",
        "lat": "58.0108412059048"
    },
    {
        "name": "Alvik",
        "lon": "17.9820039222",
        "id": "WALV",
        "lat": "59.3334321031"
    },
    {
        "name": "Alväng",
        "lon": "15.5660056343219",
        "id": "AÄ",
        "lat": "59.3790105641623"
    },
    {
        "name": "Aneby",
        "lon": "14.8118962530473",
        "id": "ANY",
        "lat": "57.8374345739583"
    },
    {
        "name": "Ankarsrum",
        "lon": "16.3344647951",
        "id": "XAKM",
        "lat": "57.6998565114"
    },
    {
        "name": "Anneberg",
        "lon": "12.1007764219566",
        "id": "AG",
        "lat": "57.5386289256155"
    },
    {
        "name": "Annedal",
        "lon": "12.9296340054614",
        "id": "AAL",
        "lat": "56.1275545771422"
    },
    {
        "name": "Anten",
        "lon": "12.4406777561",
        "id": "XA",
        "lat": "57.9875471598"
    },
    {
        "name": "Anundsjö",
        "lon": "18.143823637484",
        "id": "ANÖ",
        "lat": "63.4266488450104"
    },
    {
        "name": "Aplared",
        "lon": "13.0744164625036",
        "id": "APD",
        "lat": "57.651237474706"
    },
    {
        "name": "Aptas",
        "lon": "20.4433727593545",
        "id": "APT",
        "lat": "67.7640967023145"
    },
    {
        "name": "Arboga",
        "lon": "15.8405255628596",
        "id": "ARB",
        "lat": "59.3971893846826"
    },
    {
        "name": "Arbrå",
        "lon": "16.3798346026096",
        "id": "AB",
        "lat": "61.471034788778"
    },
    {
        "name": "Arelid",
        "lon": "12.4657492019",
        "id": "XARL",
        "lat": "58.0220609991"
    },
    {
        "name": "Arlanda C",
        "lon": "17.9284893767756",
        "id": "ARNC",
        "lat": "59.6490721184902"
    },
    {
        "name": "Arlanda N",
        "lon": "17.9298392761949",
        "id": "ARNN",
        "lat": "59.6515219446133"
    },
    {
        "name": "Arlanda nedre",
        "lon": "17.9231066332064",
        "id": "ARNE",
        "lat": "59.6327129192182"
    },
    {
        "name": "Arlanda S",
        "lon": "17.9283285059998",
        "id": "ARNS",
        "lat": "59.6468203549823"
    },
    {
        "name": "Arlöv",
        "lon": "13.0684120389552",
        "id": "AL",
        "lat": "55.6338637978983"
    },
    {
        "name": "Arlövs industrispår",
        "lon": "13.0722201983316",
        "id": "ALI",
        "lat": "55.6414011608906"
    },
    {
        "name": "Arnemark",
        "lon": "21.2179338294675",
        "id": "AMK",
        "lat": "65.4912755738052"
    },
    {
        "name": "Arnäsvall",
        "lon": "18.7859434054292",
        "id": "ARA",
        "lat": "63.3080206811078"
    },
    {
        "name": "Arvidsjaur",
        "lon": "19.1684519442907",
        "id": "AJR",
        "lat": "65.5887057521369"
    },
    {
        "name": "Arvika",
        "lon": "12.5908033624871",
        "id": "AR",
        "lat": "59.6536341600957"
    },
    {
        "name": "Arvån",
        "lon": "19.0030109558005",
        "id": "AN",
        "lat": "64.5583573398218"
    },
    {
        "name": "Aska",
        "lon": "14.9781867030",
        "id": "XASK",
        "lat": "58.4541849891"
    },
    {
        "name": "Aspedalen",
        "lon": "12.2584783497334",
        "id": "ASD",
        "lat": "57.7624780642596"
    },
    {
        "name": "Aspen",
        "lon": "12.2405122266754",
        "id": "APN",
        "lat": "57.754422054421"
    },
    {
        "name": "Aspeå",
        "lon": "17.5136456430103",
        "id": "AP",
        "lat": "63.387693391759"
    },
    {
        "name": "Assberg",
        "lon": "12.668601515725",
        "id": "ASB",
        "lat": "57.4943517192597"
    },
    {
        "name": "Astrid Lindgrens värld",
        "lon": "15.8400639355749",
        "id": "ALV",
        "lat": "57.6727072934453"
    },
    {
        "name": "Attarp",
        "lon": "13.8487104831543",
        "id": "ATP",
        "lat": "56.1372029369228"
    },
    {
        "name": "Auktsjaur",
        "lon": "19.3939289080",
        "id": "AUK",
        "lat": "65.7386814187"
    },
    {
        "name": "Avaviken",
        "lon": "18.6509237129647",
        "id": "AVA",
        "lat": "65.6051198279393"
    },
    {
        "name": "Avesta centrum",
        "lon": "16.1706069231625",
        "id": "ACM",
        "lat": "60.1472930305922"
    },
    {
        "name": "Avesta Krylbo",
        "lon": "16.2161478361305",
        "id": "AVKY",
        "lat": "60.1295332403611"
    },
    {
        "name": "Axhult",
        "lon": "13.6926071445",
        "id": "MRD.AX",
        "lat": "56.5168359487"
    },
    {
        "name": "Axmar Bruk",
        "lon": "17.1333988411",
        "id": "AX.BR",
        "lat": "61.0497530337"
    },
    {
        "name": "Axmarby",
        "lon": "17.1135900221248",
        "id": "AX",
        "lat": "61.0073863874212"
    },
    {
        "name": "Backe",
        "lon": "16.4269094978588",
        "id": "BE",
        "lat": "63.8073218543052"
    },
    {
        "name": "Backsjön",
        "lon": "17.2994513143905",
        "id": "BAÖ",
        "lat": "63.3247229083742"
    },
    {
        "country": "XX",
        "name": "Badabruk",
        "lon": "13.0961355244713",
        "id": "BDB",
        "lat": "60.0621873711119"
    },
    {
        "name": "Badsta",
        "lon": "14.2914543731746",
        "id": "BAD",
        "lat": "59.5474859128165"
    },
    {
        "name": "Baggeby",
        "lon": "18.1339053224",
        "id": "WBAG",
        "lat": "59.3568344887"
    },
    {
        "name": "Baggetorp",
        "lon": "16.0649130075315",
        "id": "BT",
        "lat": "59.009615590845"
    },
    {
        "name": "Ballingslöv",
        "lon": "13.8483919546551",
        "id": "BL",
        "lat": "56.2140339233034"
    },
    {
        "name": "Bankeryd",
        "lon": "14.1282336437804",
        "id": "BRY",
        "lat": "57.8603598826017"
    },
    {
        "name": "Barkarby",
        "lon": "17.8673565306373",
        "id": "BKB",
        "lat": "59.4041345947938"
    },
    {
        "name": "Barkåkra",
        "lon": "12.8246319072",
        "id": "BAA",
        "lat": "56.2936557464"
    },
    {
        "name": "Barva",
        "lon": "16.7927643443032",
        "id": "BVA",
        "lat": "59.3434158148728"
    },
    {
        "country": "XX",
        "name": "Basthagen",
        "lon": "15.9741711774486",
        "id": "BTH",
        "lat": "58.2054984808934"
    },
    {
        "name": "Bastuträsk",
        "lon": "20.0415114123291",
        "id": "BST",
        "lat": "64.7890385030436"
    },
    {
        "name": "Bengtsfors",
        "lon": "12.2348695128086",
        "id": "BEF",
        "lat": "59.0289040009623"
    },
    {
        "name": "Bensjöbacken",
        "lon": "15.4542932846921",
        "id": "BSB",
        "lat": "62.7035570713074"
    },
    {
        "name": "Berga",
        "lon": "16.033442964319",
        "id": "BG",
        "lat": "57.2165328062797"
    },
    {
        "name": "Bergfors",
        "lon": "19.7826878496739",
        "id": "BFS",
        "lat": "68.1472705827621"
    },
    {
        "name": "Berghem",
        "lon": "12.5983644397695",
        "id": "BGM",
        "lat": "57.46703679088"
    },
    {
        "name": "Bergåsa",
        "lon": "15.6006353799099",
        "id": "BÅA",
        "lat": "56.1818170883158"
    },
    {
        "country": "DE",
        "name": "Berlin Hbf",
        "lon": "13.4080532629759",
        "id": "DE.BER",
        "lat": "52.5186101071692"
    },
    {
        "name": "Bestorp",
        "lon": "15.731784480864",
        "id": "BSP",
        "lat": "58.235770319295"
    },
    {
        "name": "Betåsen",
        "lon": "16.8136507794893",
        "id": "BTÅ",
        "lat": "63.5520177301548"
    },
    {
        "name": "Billeberga",
        "lon": "12.9958482485871",
        "id": "BIB",
        "lat": "55.8837601982508"
    },
    {
        "name": "Billesholm",
        "lon": "12.9768301458667",
        "id": "BIH",
        "lat": "56.0564054023435"
    },
    {
        "name": "Billingsfors",
        "lon": "12.2496695674196",
        "id": "BFO",
        "lat": "58.9819643741444"
    },
    {
        "name": "Birsta",
        "lon": "17.3126128136913",
        "id": "BIA",
        "lat": "62.4471206928539"
    },
    {
        "name": "Biskopstorp",
        "lon": "12.8589063947524",
        "id": "BTP",
        "lat": "56.7496151316212"
    },
    {
        "name": "Bispgården",
        "lon": "16.6208846955545",
        "id": "BSG",
        "lat": "63.0286649720903"
    },
    {
        "name": "Bjurhem",
        "lon": "12.2800531105714",
        "id": "BJH",
        "lat": "58.4284661975608"
    },
    {
        "name": "Bjurå",
        "lon": "22.1494982357188",
        "id": "BRÅ",
        "lat": "66.0355526784454"
    },
    {
        "name": "Bjuv",
        "lon": "12.9110740101614",
        "id": "BJUV",
        "lat": "56.0825674361691"
    },
    {
        "name": "Bjärka-Säby",
        "lon": "15.7528235309471",
        "id": "BSÄ",
        "lat": "58.2706331377105"
    },
    {
        "name": "Bjärnum",
        "lon": "13.704058706657",
        "id": "BJM",
        "lat": "56.2929268792091"
    },
    {
        "name": "Bjästa",
        "lon": "18.444524031963",
        "id": "BJA",
        "lat": "63.2115866059666"
    },
    {
        "name": "Björbo",
        "lon": "14.7288098648694",
        "id": "BÖO",
        "lat": "60.4531237087972"
    },
    {
        "name": "Björketorp",
        "lon": "12.5239444867031",
        "id": "BJO",
        "lat": "57.4279259657937"
    },
    {
        "name": "Björkhult",
        "lon": "15.6643247720723",
        "id": "BÖK",
        "lat": "57.8485363935235"
    },
    {
        "name": "Björkliden",
        "lon": "18.6863534252475",
        "id": "BLN",
        "lat": "68.4083872345493"
    },
    {
        "name": "Björköby",
        "lon": "14.9105621479838",
        "id": "BJY",
        "lat": "57.521052466788"
    },
    {
        "name": "Björna",
        "lon": "18.5968718938934",
        "id": "BJ",
        "lat": "63.5514030514999"
    },
    {
        "name": "Björneborg",
        "lon": "14.2503849752697",
        "id": "BJB",
        "lat": "59.244355075379"
    },
    {
        "country": "NO",
        "name": "Björnfjell",
        "lon": "18.0715614043594",
        "id": "BJF",
        "lat": "68.4320478814142"
    },
    {
        "name": "Björnidet",
        "lon": "14.7469293570342",
        "id": "BID",
        "lat": "61.3816169282451"
    },
    {
        "name": "Björnkulla",
        "lon": "17.928581180791",
        "id": "BJN",
        "lat": "59.2037558405338"
    },
    {
        "name": "Björnlunda",
        "lon": "17.1546581507634",
        "id": "B",
        "lat": "59.0655504077227"
    },
    {
        "name": "Björnsjö",
        "lon": "18.4603132887606",
        "id": "BJÖ",
        "lat": "63.5076686725922"
    },
    {
        "country": "NO",
        "name": "Bjørnfjell",
        "lon": "18.0710867313",
        "id": "XBJF",
        "lat": "68.4321463791"
    },
    {
        "name": "Blackvreten",
        "lon": "17.9075555662777",
        "id": "BVR",
        "lat": "59.6076032065377"
    },
    {
        "name": "Blattnicksele",
        "lon": "17.5898359228516",
        "id": "BNK",
        "lat": "65.3447558318283"
    },
    {
        "name": "Blidstena",
        "lon": "16.3764605651185",
        "id": "BDA",
        "lat": "58.0392565358813"
    },
    {
        "name": "Blomberg",
        "lon": "13.3205202702958",
        "id": "BMB",
        "lat": "58.5401527097044"
    },
    {
        "name": "Blomstermåla",
        "lon": "16.3321139948145",
        "id": "BMA",
        "lat": "56.9807111640928"
    },
    {
        "name": "Blyberg",
        "lon": "14.1377814612227",
        "id": "BBE",
        "lat": "61.1532761135922"
    },
    {
        "name": "Blädinge",
        "lon": "14.5043568211612",
        "id": "BLD",
        "lat": "56.8415075990754"
    },
    {
        "name": "Blägda",
        "lon": "16.1234099408",
        "id": "XBLÄ",
        "lat": "57.6102489600"
    },
    {
        "name": "Boda",
        "lon": "17.0080641945786",
        "id": "BODA",
        "lat": "61.590484662856"
    },
    {
        "name": "Bodaborg",
        "lon": "16.3755574954251",
        "id": "BOG",
        "lat": "62.4593481535058"
    },
    {
        "name": "Bodafors",
        "lon": "14.694780120814",
        "id": "BDF",
        "lat": "57.5061001376258"
    },
    {
        "name": "Bodal",
        "lon": "18.1384555962",
        "id": "WBOD",
        "lat": "59.3536964736"
    },
    {
        "name": "Boden C",
        "lon": "21.7080533433063",
        "id": "BDN",
        "lat": "65.8288023405279"
    },
    {
        "name": "Bodens södra",
        "lon": "21.6473669082432",
        "id": "BDS",
        "lat": "65.8254753343644"
    },
    {
        "name": "Bodsjön",
        "lon": "15.4213000451051",
        "id": "BÖN",
        "lat": "62.814644921116"
    },
    {
        "name": "Bofors",
        "lon": "14.5469261211809",
        "id": "BOF",
        "lat": "59.3333108653712"
    },
    {
        "name": "Bohus",
        "lon": "12.0195643700662",
        "id": "BHS",
        "lat": "57.8640055637278"
    },
    {
        "name": "Bollebygd",
        "lon": "12.5700109218786",
        "id": "BOY",
        "lat": "57.6675305014501"
    },
    {
        "name": "Bollnäs",
        "lon": "16.3917203951016",
        "id": "BN",
        "lat": "61.3494847408896"
    },
    {
        "name": "Bolzano",
        "lon": "11.2567067238",
        "id": "IT.BOL",
        "lat": "46.5163911134"
    },
    {
        "name": "Bomansberget",
        "lon": "17.2417948604959",
        "id": "BOM",
        "lat": "60.6507618122536"
    },
    {
        "name": "Bor",
        "lon": "14.1686435183678",
        "id": "BOR",
        "lat": "57.1161315557949"
    },
    {
        "name": "Borgstena",
        "lon": "13.0148329131348",
        "id": "BOA",
        "lat": "57.882975228598"
    },
    {
        "name": "Borlänge C",
        "lon": "15.4254721107928",
        "id": "BLG",
        "lat": "60.4829431314137"
    },
    {
        "name": "Born",
        "lon": "14.6429705314542",
        "id": "BORN",
        "lat": "61.1352704137154"
    },
    {
        "name": "Bor Norra",
        "lon": "14.1702567982",
        "id": "XBN",
        "lat": "57.1163578493"
    },
    {
        "name": "Borås C",
        "lon": "12.9310250022131",
        "id": "BS",
        "lat": "57.720331643933"
    },
    {
        "name": "Botorp",
        "lon": "14.4631387593533",
        "id": "BOP",
        "lat": "59.316693355303"
    },
    {
        "name": "Boxholm",
        "lon": "15.0536306926954",
        "id": "BX",
        "lat": "58.1929189074741"
    },
    {
        "name": "Brastad",
        "lon": "11.4852800580059",
        "id": "BSA",
        "lat": "58.3821965688771"
    },
    {
        "name": "Brattby",
        "lon": "19.8816367545585",
        "id": "BTB",
        "lat": "63.9109729358939"
    },
    {
        "country": "XX",
        "name": "Bratteborg",
        "lon": "14.1253561784943",
        "id": "BTG",
        "lat": "57.5776121509893"
    },
    {
        "name": "Brattheden",
        "lon": "16.181052445287",
        "id": "BRH",
        "lat": "59.7880348860487"
    },
    {
        "name": "Brattsbacka",
        "lon": "19.1857625204601",
        "id": "BRS",
        "lat": "63.7847863659148"
    },
    {
        "name": "Bredaryd",
        "lon": "13.7376510012433",
        "id": "BDY",
        "lat": "57.1765367548765"
    },
    {
        "country": "XX",
        "name": "Bredsjö",
        "lon": "14.7269179486679",
        "id": "BRÖ",
        "lat": "59.8320341731395"
    },
    {
        "name": "Bredviken",
        "lon": "23.2331540488122",
        "id": "BEN",
        "lat": "65.8373829894487"
    },
    {
        "name": "Brevik",
        "lon": "18.2036544695",
        "id": "WBVI",
        "lat": "59.3483980033"
    },
    {
        "name": "Brinellskolan",
        "lon": "14.7009363103458",
        "id": "BRIN",
        "lat": "57.6694202724428"
    },
    {
        "name": "Brista",
        "lon": "17.867244896856",
        "id": "BRA",
        "lat": "59.6099745685095"
    },
    {
        "name": "Bro",
        "lon": "17.6329583329725",
        "id": "BRO",
        "lat": "59.5123000112716"
    },
    {
        "name": "Brobacka",
        "lon": "12.4345383014",
        "id": "XBB",
        "lat": "57.9778173678"
    },
    {
        "name": "Broddbo",
        "lon": "16.4818824355647",
        "id": "BDO",
        "lat": "59.9869158501694"
    },
    {
        "name": "Brogården",
        "lon": "14.0542061924479",
        "id": "BGD",
        "lat": "57.9172027063354"
    },
    {
        "name": "Brokind",
        "lon": "15.684241065822",
        "id": "BRK",
        "lat": "58.2201445889614"
    },
    {
        "name": "Bromölla",
        "lon": "14.4816195228402",
        "id": "BML",
        "lat": "56.0671645865324"
    },
    {
        "name": "Bro Nygård",
        "lon": "17.6720022960401",
        "id": "BRNY",
        "lat": "59.4976893669945"
    },
    {
        "name": "Bruksberget",
        "lon": "22.7136274537672",
        "id": "BET",
        "lat": "66.0036497517564"
    },
    {
        "name": "Brunflo",
        "lon": "14.8325839147295",
        "id": "BF",
        "lat": "63.0759732898785"
    },
    {
        "name": "Brunna",
        "lon": "17.428941526383",
        "id": "BNA",
        "lat": "59.861356325598"
    },
    {
        "name": "Brunnsgård",
        "lon": "15.1068972057339",
        "id": "BSD",
        "lat": "57.4225512966623"
    },
    {
        "name": "Brunsberg",
        "lon": "12.9613133920282",
        "id": "BUK",
        "lat": "59.6176282833146"
    },
    {
        "name": "Brunsbergstunneln",
        "lon": "12.9465905357272",
        "id": "BU",
        "lat": "59.6223927225015"
    },
    {
        "name": "Bruzaholm",
        "lon": "15.2751829305445",
        "id": "BZ",
        "lat": "57.6416374092622"
    },
    {
        "name": "Bryngenäs",
        "lon": "12.487553814658",
        "id": "BGS",
        "lat": "57.8977603815998"
    },
    {
        "name": "Brågarp",
        "lon": "13.2265544519984",
        "id": "BÅP",
        "lat": "55.6499843504796"
    },
    {
        "name": "Brålanda",
        "lon": "12.3489717100477",
        "id": "BRL",
        "lat": "58.5600420027967"
    },
    {
        "name": "Brånan",
        "lon": "14.4090087741343",
        "id": "BRN",
        "lat": "62.6938119212339"
    },
    {
        "name": "Bråvallavägen",
        "lon": "18.0604440748",
        "id": "XBVV",
        "lat": "59.4054979576"
    },
    {
        "name": "Bräcke",
        "lon": "15.4176180503435",
        "id": "BÄ",
        "lat": "62.7500039033173"
    },
    {
        "name": "Bräkne-Hoby",
        "lon": "15.1160583377758",
        "id": "BHB",
        "lat": "56.2313701348213"
    },
    {
        "name": "Brännarp",
        "lon": "12.7280987900304",
        "id": "BP",
        "lat": "56.7881257356869"
    },
    {
        "name": "Brännberg",
        "lon": "21.2257063495481",
        "id": "BRG",
        "lat": "65.7830763655734"
    },
    {
        "name": "Bränninge",
        "lon": "17.6352365348096",
        "id": "BRE",
        "lat": "59.1405011677401"
    },
    {
        "name": "Brännland",
        "lon": "20.0566190956887",
        "id": "BRD",
        "lat": "63.8806494186925"
    },
    {
        "name": "Brännlandsberget",
        "lon": "20.1019530428657",
        "id": "BRDB",
        "lat": "63.8700404872416"
    },
    {
        "name": "Bränntjärn",
        "lon": "19.3040155147",
        "id": "BRÄ",
        "lat": "65.4957351134"
    },
    {
        "name": "Brännögård",
        "lon": "13.1007954953161",
        "id": "BÖG",
        "lat": "57.00551080468"
    },
    {
        "name": "Brösarp",
        "lon": "14.1253314930",
        "id": "XBÖP",
        "lat": "55.7350456596"
    },
    {
        "name": "Brösarp södra",
        "lon": "14.1260378814",
        "id": "XBÖS",
        "lat": "55.7319416278"
    },
    {
        "name": "Buddbyn",
        "lon": "21.7083686747871",
        "id": "BUD",
        "lat": "65.8630107466169"
    },
    {
        "name": "Buresjön",
        "lon": "17.8530175958197",
        "id": "BUR",
        "lat": "65.5536573762586"
    },
    {
        "name": "Burlöv",
        "lon": "13.0803955821808",
        "id": "BLV",
        "lat": "55.6409182304278"
    },
    {
        "name": "Buterud",
        "lon": "12.4002562415534",
        "id": "BUT",
        "lat": "58.8531131446775"
    },
    {
        "country": "XX",
        "name": "Byarum",
        "lon": "14.1437684644154",
        "id": "BYM",
        "lat": "57.5362542597149"
    },
    {
        "name": "Byvalla",
        "lon": "16.4162983038521",
        "id": "BY",
        "lat": "60.3470140356564"
    },
    {
        "name": "Byälven",
        "lon": "12.9221282177582",
        "id": "BYÄ",
        "lat": "59.1386251874407"
    },
    {
        "name": "Bålsta",
        "lon": "17.5318845338848",
        "id": "BÅL",
        "lat": "59.5694322730088"
    },
    {
        "name": "Båramo",
        "lon": "14.0906556826682",
        "id": "BMO",
        "lat": "57.4535603580179"
    },
    {
        "name": "Båstad",
        "lon": "12.8686577561333",
        "id": "BÅSÖ",
        "lat": "56.4249910221979"
    },
    {
        "name": "Båstad norra",
        "lon": "12.9050325869515",
        "id": "BÅN",
        "lat": "56.4308679049821"
    },
    {
        "name": "Bäckebron",
        "lon": "13.1661643561986",
        "id": "BÄB",
        "lat": "59.6610381288803"
    },
    {
        "name": "Bäckedal",
        "lon": "14.3765843288587",
        "id": "BDL",
        "lat": "62.0265894882368"
    },
    {
        "name": "Bäckefors",
        "lon": "12.1592925700633",
        "id": "BÄF",
        "lat": "58.8043367015648"
    },
    {
        "name": "Bälgviken",
        "lon": "16.4606365610071",
        "id": "BGV",
        "lat": "59.2526782087152"
    },
    {
        "name": "Bällsta",
        "lon": "18.0715671695455",
        "id": "BÄL",
        "lat": "59.5241155585946"
    },
    {
        "name": "Bällsta",
        "lon": "18.0720755145",
        "id": "XBÄL",
        "lat": "59.5228994638"
    },
    {
        "name": "Bärby",
        "lon": "17.8154782889",
        "id": "XB",
        "lat": "59.8571329546"
    },
    {
        "name": "Callans såg",
        "lon": "15.9930438143767",
        "id": "CAS",
        "lat": "62.5134747434494"
    },
    {
        "name": "Charlottenberg",
        "lon": "12.2992640722931",
        "id": "CG",
        "lat": "59.8831304351449"
    },
    {
        "country": "DK",
        "name": "Copenhagen Airport",
        "lon": "12.649354",
        "id": "DK.CPH",
        "lat": "55.629514"
    },
    {
        "name": "Copenhagen Airport",
        "lon": "12.6751914486",
        "id": "XCPH",
        "lat": "55.6315701843"
    },
    {
        "name": "Copenhagen Airport",
        "lon": "12.6751914486",
        "id": "CPH",
        "lat": "55.6315701843"
    },
    {
        "name": "Dagarn",
        "lon": "15.7170539304405",
        "id": "DN",
        "lat": "59.9080666799543"
    },
    {
        "name": "Daglösen",
        "lon": "14.1914406551167",
        "id": "DGÖ",
        "lat": "59.6421419748581"
    },
    {
        "name": "Dala-Floda",
        "lon": "14.7899654817986",
        "id": "DFL",
        "lat": "60.4887356549155"
    },
    {
        "name": "Dala-Järna",
        "lon": "14.3627104882753",
        "id": "DJ",
        "lat": "60.547672000249"
    },
    {
        "name": "Dala kvarn",
        "lon": "13.4418781256",
        "id": "XDKN",
        "lat": "58.4639537321"
    },
    {
        "name": "Dalgränsen",
        "lon": "16.4534792942388",
        "id": "DGN",
        "lat": "60.3827584096635"
    },
    {
        "name": "Dals Långed",
        "lon": "12.3062475931667",
        "id": "DLD",
        "lat": "58.9234467256267"
    },
    {
        "name": "Dals Rostock",
        "lon": "12.3552910282992",
        "id": "DRT",
        "lat": "58.7134746131949"
    },
    {
        "name": "Dammstorp",
        "lon": "13.2831710124591",
        "id": "DAT",
        "lat": "55.8019030327674"
    },
    {
        "name": "Dannemora",
        "lon": "17.8480196556706",
        "id": "DMA",
        "lat": "60.1960936424034"
    },
    {
        "name": "Degerbäcken",
        "lon": "21.401807299698",
        "id": "DBN",
        "lat": "65.839491693488"
    },
    {
        "name": "Degerfors",
        "lon": "14.4403553330023",
        "id": "DG",
        "lat": "59.2288762764598"
    },
    {
        "name": "Degermyr",
        "lon": "19.605941749242",
        "id": "DGM",
        "lat": "63.8719125929454"
    },
    {
        "name": "Degerön",
        "lon": "15.1518065902147",
        "id": "D",
        "lat": "58.701503560751"
    },
    {
        "name": "Deje",
        "lon": "13.4704683481945",
        "id": "DE",
        "lat": "59.602141992377"
    },
    {
        "name": "Delsbo",
        "lon": "16.5548526485",
        "id": "XDO",
        "lat": "61.7976518259"
    },
    {
        "name": "Derome",
        "lon": "12.3201453451872",
        "id": "DRE",
        "lat": "57.2305586728826"
    },
    {
        "name": "Dingle",
        "lon": "11.5791144406312",
        "id": "DL",
        "lat": "58.5295740903235"
    },
    {
        "name": "Dingtuna",
        "lon": "16.3897789986637",
        "id": "DT",
        "lat": "59.571564423927"
    },
    {
        "name": "Dirhuvden",
        "lon": "12.4508781893",
        "id": "XDIR",
        "lat": "58.0016174153"
    },
    {
        "name": "Diö",
        "lon": "14.2142306091178",
        "id": "DIS",
        "lat": "56.6330857595413"
    },
    {
        "name": "Diö Norra",
        "lon": "14.2211301405075",
        "id": "DIÖ",
        "lat": "56.6360670042619"
    },
    {
        "name": "Djursholms Ekeby",
        "lon": "18.0575768607",
        "id": "XDJE",
        "lat": "59.4129878435"
    },
    {
        "name": "Djursholms Ösby",
        "lon": "18.0578168953",
        "id": "XDJÖ",
        "lat": "59.3968878405"
    },
    {
        "name": "Djurås",
        "lon": "15.1385500566786",
        "id": "DÅ",
        "lat": "60.5600828899017"
    },
    {
        "name": "Dockmyr",
        "lon": "15.7390250752845",
        "id": "DK",
        "lat": "62.9546157293742"
    },
    {
        "name": "Dorotea",
        "lon": "16.4058965153011",
        "id": "DTA",
        "lat": "64.2581771990088"
    },
    {
        "name": "Dorotea camping",
        "lon": "16.3900566832312",
        "id": "DTC",
        "lat": "64.2563450663964"
    },
    {
        "country": "DK",
        "name": "Drogden",
        "lon": "12.7001284231991",
        "id": "ZDRO",
        "lat": "55.6002314026954"
    },
    {
        "name": "Drömme",
        "lon": "18.2201517973212",
        "id": "DÖE",
        "lat": "63.2505104555558"
    },
    {
        "name": "Duvbo",
        "lon": "17.9321969718338",
        "id": "DUO",
        "lat": "59.3707486718185"
    },
    {
        "name": "Duved",
        "lon": "12.9174879554284",
        "id": "DU",
        "lat": "63.389765115711"
    },
    {
        "name": "Dynäs",
        "lon": "17.7376951370785",
        "id": "DNS",
        "lat": "62.9663178920468"
    },
    {
        "name": "Dysjön",
        "lon": "15.5155405747758",
        "id": "DY",
        "lat": "62.6279657046825"
    },
    {
        "name": "Dånviken",
        "lon": "17.7143397451644",
        "id": "DÅN",
        "lat": "59.189898008623"
    },
    {
        "name": "Döljebro",
        "lon": "16.6868700271795",
        "id": "DÖL",
        "lat": "60.9940009455199"
    },
    {
        "name": "Dösjebro",
        "lon": "13.0328995241367",
        "id": "DÖS",
        "lat": "55.8229849220258"
    },
    {
        "name": "Ed",
        "lon": "11.9328723193358",
        "id": "ED",
        "lat": "58.91348999641"
    },
    {
        "name": "Edane",
        "lon": "12.8293413343206",
        "id": "EN",
        "lat": "59.6268090209575"
    },
    {
        "country": "XX",
        "name": "Edsbjörke",
        "lon": "13.1709931638087",
        "id": "EBK",
        "lat": "59.9012524669967"
    },
    {
        "name": "Edsbyn",
        "lon": "15.8209742501633",
        "id": "EDN",
        "lat": "61.3727496042063"
    },
    {
        "name": "Edsbyns södra",
        "lon": "15.8333378482634",
        "id": "EDS",
        "lat": "61.374021109411"
    },
    {
        "name": "Edsbyverken",
        "lon": "15.8432749622083",
        "id": "EDV",
        "lat": "61.3720026792508"
    },
    {
        "name": "Edsvalla",
        "lon": "13.2126316651332",
        "id": "EL",
        "lat": "59.435773105221"
    },
    {
        "name": "Ekebohult",
        "lon": "14.3063777689",
        "id": "XEKH",
        "lat": "57.1906070429"
    },
    {
        "name": "Ekeby",
        "lon": "17.7553140322281",
        "id": "EBY",
        "lat": "59.7769424036703"
    },
    {
        "name": "Eken",
        "lon": "18.5238023704",
        "id": "XEKN",
        "lat": "57.5398417761"
    },
    {
        "name": "Ekenässjön",
        "lon": "15.0189168958605",
        "id": "ESN",
        "lat": "57.4905054152676"
    },
    {
        "country": "XX",
        "name": "Ekeryd",
        "lon": "14.1058803242521",
        "id": "EKY",
        "lat": "57.6094287094481"
    },
    {
        "name": "Ekolsund",
        "lon": "17.3702104669256",
        "id": "EKO",
        "lat": "59.6140626318442"
    },
    {
        "name": "Eksjö",
        "lon": "14.975428354754",
        "id": "EK",
        "lat": "57.6637529785389"
    },
    {
        "name": "Ekskogen",
        "lon": "18.2262437209",
        "id": "XEKG",
        "lat": "59.6390509769"
    },
    {
        "name": "Ekträsk",
        "lon": "19.809644890866",
        "id": "ETK",
        "lat": "64.4961551548701"
    },
    {
        "name": "Eldsberga",
        "lon": "12.9980628388935",
        "id": "EA",
        "lat": "56.5908692105258"
    },
    {
        "name": "Elgaryd",
        "lon": "14.2781135144",
        "id": "XEYD",
        "lat": "57.1788589836"
    },
    {
        "name": "Emmaboda",
        "lon": "15.5349354982897",
        "id": "EM",
        "lat": "56.629789588791"
    },
    {
        "name": "Enafors",
        "lon": "12.3373253662033",
        "id": "ENS",
        "lat": "63.2897788771173"
    },
    {
        "name": "Enebyberg",
        "lon": "18.0510873885",
        "id": "XENB",
        "lat": "59.4258912214"
    },
    {
        "name": "Eneryda",
        "lon": "14.3397039938959",
        "id": "ERA",
        "lat": "56.7078623780483"
    },
    {
        "name": "Enköping",
        "lon": "17.0886564671153",
        "id": "EP",
        "lat": "59.6445798429664"
    },
    {
        "name": "Ensta",
        "lon": "18.0637562575",
        "id": "XESA",
        "lat": "59.4534517093"
    },
    {
        "name": "Enstaberga",
        "lon": "16.8490752482132",
        "id": "EBG",
        "lat": "58.7510141620432"
    },
    {
        "name": "Erikslund",
        "lon": "15.9125596800324",
        "id": "EI",
        "lat": "62.5273896695397"
    },
    {
        "name": "Erikstad",
        "lon": "12.410621514464",
        "id": "ERK",
        "lat": "58.631439905559"
    },
    {
        "name": "Erstaviksbadet",
        "lon": "18.2850698532",
        "id": "XEVB",
        "lat": "59.2729441192"
    },
    {
        "name": "Ervalla",
        "lon": "15.2475859052027",
        "id": "ER",
        "lat": "59.4169834451212"
    },
    {
        "name": "Ervalla NBVJ",
        "lon": "15.2476540938",
        "id": "XERN",
        "lat": "59.4263226194"
    },
    {
        "name": "Eskilstuna C",
        "lon": "16.5054558864377",
        "id": "ET",
        "lat": "59.3693875889667"
    },
    {
        "name": "Eslöv",
        "lon": "13.3053733196633",
        "id": "E",
        "lat": "55.8376813833203"
    },
    {
        "country": "DK",
        "name": "Espergaerde",
        "lon": "12.7001284231991",
        "id": "ZGAE",
        "lat": "55.6002314026954"
    },
    {
        "name": "f.d. Köpingebro",
        "lon": "13.9361881059",
        "id": "ZKÖP",
        "lat": "55.4572759116"
    },
    {
        "name": "Fagerrör",
        "lon": "17.1111741653",
        "id": "XFGR",
        "lat": "57.3126356522"
    },
    {
        "name": "Fagersand",
        "lon": "16.2893948932",
        "id": "XFSD",
        "lat": "57.6956072884"
    },
    {
        "name": "Fagersanna",
        "lon": "14.297844284416",
        "id": "FGS",
        "lat": "58.469294233635"
    },
    {
        "name": "Fagersta C",
        "lon": "15.8154658398985",
        "id": "FGC",
        "lat": "59.9905487516856"
    },
    {
        "name": "Fagersta Norra",
        "lon": "15.7753448696186",
        "id": "FGN",
        "lat": "60.0086419883604"
    },
    {
        "name": "Fagerås",
        "lon": "13.2181750406347",
        "id": "FGÅ",
        "lat": "59.5197774455877"
    },
    {
        "country": "XX",
        "name": "Falerum",
        "lon": "16.2071941694446",
        "id": "FAL",
        "lat": "58.1436384187573"
    },
    {
        "name": "Falkenberg",
        "lon": "12.5087243008777",
        "id": "FABP",
        "lat": "56.9195066400243"
    },
    {
        "name": "Falkenbergs godsstation",
        "lon": "12.4875116725265",
        "id": "FABG",
        "lat": "56.9016379199236"
    },
    {
        "name": "Falköping C",
        "lon": "13.552006166893",
        "id": "F",
        "lat": "58.1757438363858"
    },
    {
        "name": "Falköpings norra",
        "lon": "13.5774517774",
        "id": "FN",
        "lat": "58.1951189402"
    },
    {
        "name": "Falun C",
        "lon": "15.6417266822974",
        "id": "FLN",
        "lat": "60.6032473035118"
    },
    {
        "name": "Faringe",
        "lon": "18.1146586843",
        "id": "XF",
        "lat": "59.9200062873"
    },
    {
        "name": "Farsta strand",
        "lon": "18.1041371060933",
        "id": "FAS",
        "lat": "59.236704958245"
    },
    {
        "name": "Fellingsbro",
        "lon": "15.5950380939042",
        "id": "FEB",
        "lat": "59.4328261436368"
    },
    {
        "country": "XX",
        "name": "Filipstad",
        "lon": "14.1594702905844",
        "id": "FID",
        "lat": "59.7083494170406"
    },
    {
        "name": "Fillan",
        "lon": "17.3819771187149",
        "id": "FIL",
        "lat": "62.4261869714432"
    },
    {
        "name": "Filsbäck",
        "lon": "13.2472010971989",
        "id": "FIÄ",
        "lat": "58.4931698136594"
    },
    {
        "name": "Finja",
        "lon": "13.6954895741371",
        "id": "FIN",
        "lat": "56.1696727291993"
    },
    {
        "name": "Finkelboda",
        "lon": "16.4329683115",
        "id": "XFIA",
        "lat": "60.8599557110"
    },
    {
        "name": "Finnerödja",
        "lon": "14.4429159147909",
        "id": "FA",
        "lat": "58.9261915025442"
    },
    {
        "name": "Finnforsfallet",
        "lon": "20.3331017714145",
        "id": "FFS",
        "lat": "64.7773741984548"
    },
    {
        "name": "Finspång",
        "lon": "15.7754947556367",
        "id": "FG",
        "lat": "58.7071986075267"
    },
    {
        "name": "Fiskeby",
        "lon": "16.1239245188036",
        "id": "FI",
        "lat": "58.6050746078561"
    },
    {
        "name": "Fisksätra",
        "lon": "18.2560148293",
        "id": "XFSÄ",
        "lat": "59.2941205020"
    },
    {
        "name": "Fiskåsen",
        "lon": "17.1262872097",
        "id": "XFIE",
        "lat": "57.3184193490"
    },
    {
        "name": "Fjälkinge",
        "lon": "14.2980792089501",
        "id": "FKI",
        "lat": "56.0414404947888"
    },
    {
        "name": "Fjällåsen",
        "lon": "20.0937032011069",
        "id": "FJÅ",
        "lat": "67.5193569685257"
    },
    {
        "name": "Flackarp",
        "lon": "13.1581100635269",
        "id": "FLP",
        "lat": "55.6866858584218"
    },
    {
        "name": "Flaten",
        "lon": "15.6719445240",
        "id": "XFLA",
        "lat": "57.3653252013"
    },
    {
        "name": "Flemingsberg",
        "lon": "17.947841782768",
        "id": "FLB",
        "lat": "59.2192614877336"
    },
    {
        "name": "Flen",
        "lon": "16.5852782163976",
        "id": "FLE",
        "lat": "59.0569465905644"
    },
    {
        "name": "Flens övre",
        "lon": "16.5948732844727",
        "id": "FSÖ",
        "lat": "59.0615535567703"
    },
    {
        "name": "Flisby",
        "lon": "14.8007350113884",
        "id": "FLS",
        "lat": "57.7877451696623"
    },
    {
        "name": "Fliskär",
        "lon": "17.2460575920234",
        "id": "FÄR",
        "lat": "60.6864833744813"
    },
    {
        "name": "Floby",
        "lon": "13.3322272061583",
        "id": "FBY",
        "lat": "58.1387436114596"
    },
    {
        "name": "Floda",
        "lon": "12.3614818135491",
        "id": "FD",
        "lat": "57.8100025538908"
    },
    {
        "name": "Flodala",
        "lon": "13.5217453626905",
        "id": "FAA",
        "lat": "57.4706514061354"
    },
    {
        "name": "Flädie",
        "lon": "13.0739951128543",
        "id": "FL",
        "lat": "55.7236894235928"
    },
    {
        "name": "Folkesta",
        "lon": "16.4143178213831",
        "id": "FOK",
        "lat": "59.4027407768235"
    },
    {
        "name": "Foodia",
        "lon": "13.1853655988122",
        "id": "FOO",
        "lat": "55.6302485065808"
    },
    {
        "name": "Fors",
        "lon": "16.3115206925692",
        "id": "FS",
        "lat": "60.2064994802923"
    },
    {
        "name": "Forsa",
        "lon": "16.9455954666",
        "id": "XFSA",
        "lat": "61.7344376229"
    },
    {
        "name": "Forsbacka",
        "lon": "16.8884612117468",
        "id": "FB",
        "lat": "60.6397424980983"
    },
    {
        "name": "Forserum",
        "lon": "14.474112532228",
        "id": "FM",
        "lat": "57.6978566292233"
    },
    {
        "name": "Forsheda",
        "lon": "13.8329175006726",
        "id": "FOD",
        "lat": "57.1632729634924"
    },
    {
        "name": "Forshem",
        "lon": "13.4918263405899",
        "id": "FHM",
        "lat": "58.6180831722945"
    },
    {
        "name": "Forsmo",
        "lon": "17.1795472940428",
        "id": "FSM",
        "lat": "63.26394351745"
    },
    {
        "name": "Forsmöllan",
        "lon": "13.1815813800",
        "id": "XFMÖ",
        "lat": "56.1172593316"
    },
    {
        "name": "Fosieby",
        "lon": "13.0314729846625",
        "id": "FSB",
        "lat": "55.562257666629"
    },
    {
        "name": "Framnäs city",
        "lon": "13.1473122304793",
        "id": "FC",
        "lat": "58.5077120933878"
    },
    {
        "country": "XX",
        "name": "Fredriksdal",
        "lon": "14.5944468901413",
        "id": "FDL",
        "lat": "57.6158745842098"
    },
    {
        "name": "Fredriksfors",
        "lon": "16.6203185626",
        "id": "XFOS",
        "lat": "61.7857343023"
    },
    {
        "name": "Fredrikslund",
        "lon": "15.9506026989515",
        "id": "FRE",
        "lat": "56.7375031538827"
    },
    {
        "name": "Frillesås",
        "lon": "12.169561936607",
        "id": "FÅ",
        "lat": "57.3186404198786"
    },
    {
        "name": "Friluftsgården",
        "lon": "12.2516320797652",
        "id": "FLGD",
        "lat": "58.9507813332602"
    },
    {
        "name": "Frinnaryd",
        "lon": "14.8218951051947",
        "id": "FRD",
        "lat": "57.9373943188769"
    },
    {
        "name": "Fristad",
        "lon": "13.0086261339595",
        "id": "FRA",
        "lat": "57.8274249814999"
    },
    {
        "name": "Fritsla",
        "lon": "12.7897675298165",
        "id": "FRL",
        "lat": "57.5577430284481"
    },
    {
        "name": "Frufällan",
        "lon": "12.9812269572555",
        "id": "FFL",
        "lat": "57.7770905431451"
    },
    {
        "country": "XX",
        "name": "Frykåsen",
        "lon": "13.1847908245694",
        "id": "FRÅ",
        "lat": "59.6264562267624"
    },
    {
        "name": "Frånö",
        "lon": "17.8276863203596",
        "id": "FNÖ",
        "lat": "62.9061539898095"
    },
    {
        "name": "Frändefors",
        "lon": "12.2797194839173",
        "id": "FDF",
        "lat": "58.4942545139603"
    },
    {
        "name": "Fränsta",
        "lon": "16.1674488383153",
        "id": "FT",
        "lat": "62.4960125992971"
    },
    {
        "name": "Frösunda",
        "lon": "18.1703072979",
        "id": "XFSU",
        "lat": "59.6240970120"
    },
    {
        "name": "Frövi",
        "lon": "15.3636943577409",
        "id": "FV",
        "lat": "59.4676199660851"
    },
    {
        "name": "Funbo",
        "lon": "17.8589065385",
        "id": "XFB",
        "lat": "59.8494939151"
    },
    {
        "name": "Furet",
        "lon": "12.8885213991908",
        "id": "FUR",
        "lat": "56.6847088816981"
    },
    {
        "name": "Furudal",
        "lon": "15.1349702741119",
        "id": "FDA",
        "lat": "61.1696996627744"
    },
    {
        "name": "Furuvik",
        "lon": "17.3296824343404",
        "id": "FVK",
        "lat": "60.6514163923585"
    },
    {
        "name": "Fyrislund",
        "lon": "17.6821027918",
        "id": "XFL",
        "lat": "59.8584270235"
    },
    {
        "name": "Fågelsjö",
        "lon": "14.6820784511285",
        "id": "FEÖ",
        "lat": "61.8016045676964"
    },
    {
        "name": "Fågelsta",
        "lon": "15.0393820129218",
        "id": "FGL",
        "lat": "58.4586445587241"
    },
    {
        "name": "Fåker",
        "lon": "14.5743925928155",
        "id": "FKR",
        "lat": "62.9932005922009"
    },
    {
        "name": "Fållinge",
        "lon": "13.4351717563161",
        "id": "FÅL",
        "lat": "57.1689340717084"
    },
    {
        "name": "Fångsjöbacken",
        "lon": "16.7809633821184",
        "id": "FGÖ",
        "lat": "63.054042233977"
    },
    {
        "name": "Fårhult",
        "lon": "16.4200802547",
        "id": "XFÅT",
        "lat": "57.7377073682"
    },
    {
        "name": "Fästad",
        "lon": "16.3740085821125",
        "id": "FAD",
        "lat": "57.9439623131784"
    },
    {
        "name": "Förslöv",
        "lon": "12.8095904600633",
        "id": "FÖR",
        "lat": "56.3490667855281"
    },
    {
        "name": "Gagnef",
        "lon": "15.081034635635",
        "id": "GNF",
        "lat": "60.5987555551909"
    },
    {
        "name": "Galoppfältet",
        "lon": "18.0844381046",
        "id": "XGPF",
        "lat": "59.4468180584"
    },
    {
        "name": "Gamlarp",
        "lon": "14.6868405584522",
        "id": "GMP",
        "lat": "57.6807940456712"
    },
    {
        "name": "Gamla Tortuna",
        "lon": "16.7188951940576",
        "id": "GTTU",
        "lat": "59.6738488374358"
    },
    {
        "country": "XX",
        "name": "Gamleby",
        "lon": "16.4096369955743",
        "id": "GAL",
        "lat": "57.8969934989969"
    },
    {
        "name": "Gamlestaden",
        "lon": "12.0044597359418",
        "id": "GAS",
        "lat": "57.7360700822839"
    },
    {
        "name": "Gammelstad",
        "lon": "22.0261206559387",
        "id": "GST",
        "lat": "65.641023683478"
    },
    {
        "name": "Gantofta",
        "lon": "12.809001245834",
        "id": "GAN",
        "lat": "55.9890456096634"
    },
    {
        "name": "Garnudden",
        "lon": "17.7708146868774",
        "id": "GAU",
        "lat": "59.193351221494"
    },
    {
        "name": "Garsås",
        "lon": "14.8192617947022",
        "id": "GSÅ",
        "lat": "60.913301048025"
    },
    {
        "name": "Gastsjön",
        "lon": "15.8564634473478",
        "id": "GSN",
        "lat": "62.9582879491969"
    },
    {
        "name": "Geijersdal",
        "lon": "13.9669225897472",
        "id": "GDL",
        "lat": "59.5984380014272"
    },
    {
        "name": "Gemla",
        "lon": "14.6462490340332",
        "id": "GM",
        "lat": "56.8707651664748"
    },
    {
        "name": "Genevad",
        "lon": "13.0318020589744",
        "id": "GND",
        "lat": "56.5709642387721"
    },
    {
        "name": "Geografiska polcirkeln",
        "lon": "19.9122615708658",
        "id": "GPC",
        "lat": "66.5533160073007"
    },
    {
        "name": "Getå",
        "lon": "16.2634000999197",
        "id": "GTÅ",
        "lat": "58.6665831905677"
    },
    {
        "name": "Gideåbacka",
        "lon": "19.0839475726019",
        "id": "GIA",
        "lat": "63.3376596349897"
    },
    {
        "name": "Gimarp",
        "lon": "14.2711251069",
        "id": "XGIM",
        "lat": "57.1742190327"
    },
    {
        "name": "Gimarpsby",
        "lon": "14.2611064875",
        "id": "XGBY",
        "lat": "57.1657159203"
    },
    {
        "name": "Gimo",
        "lon": "18.1841911090755",
        "id": "GMO",
        "lat": "60.1759323770163"
    },
    {
        "name": "Gimonäs",
        "lon": "20.3158931749901",
        "id": "GIM",
        "lat": "63.7873110158395"
    },
    {
        "name": "Gistad",
        "lon": "15.914390080018",
        "id": "GI",
        "lat": "58.4784659314756"
    },
    {
        "name": "Glommersträsk",
        "lon": "19.6079160393",
        "id": "GLK",
        "lat": "65.2675946808"
    },
    {
        "name": "Glumslöv",
        "lon": "12.8141720366635",
        "id": "GLV",
        "lat": "55.9440115112687"
    },
    {
        "name": "Gnarp",
        "lon": "17.2429183128328",
        "id": "GNP",
        "lat": "62.0553507271423"
    },
    {
        "name": "Gnesta",
        "lon": "17.3128411185534",
        "id": "GN",
        "lat": "59.0485492745412"
    },
    {
        "name": "Gnosjö",
        "lon": "13.7349999652827",
        "id": "GNÖ",
        "lat": "57.3585171431863"
    },
    {
        "name": "Gnötteln",
        "lon": "15.8966733518",
        "id": "XGNL",
        "lat": "57.5200553009"
    },
    {
        "name": "Godegård",
        "lon": "15.1651635155179",
        "id": "GO",
        "lat": "58.7453056741044"
    },
    {
        "name": "Gottne",
        "lon": "18.3906890485826",
        "id": "GE",
        "lat": "63.4357186227229"
    },
    {
        "name": "Granbergsdal",
        "lon": "14.6010298603767",
        "id": "GR",
        "lat": "59.4003814709376"
    },
    {
        "name": "Graninge",
        "lon": "16.8609539372598",
        "id": "GA",
        "lat": "63.0900028103396"
    },
    {
        "name": "Gransjö",
        "lon": "21.4080058869834",
        "id": "GRS",
        "lat": "66.0639253991969"
    },
    {
        "name": "Granstanda",
        "lon": "16.3660549068593",
        "id": "GAD",
        "lat": "60.5847805051392"
    },
    {
        "name": "Grevaryd",
        "lon": "14.5888818280996",
        "id": "GRD",
        "lat": "57.1498527467688"
    },
    {
        "name": "Grevie",
        "lon": "12.7834433264053",
        "id": "GVE",
        "lat": "56.391180365213"
    },
    {
        "name": "Grillby",
        "lon": "17.2339929630143",
        "id": "GIB",
        "lat": "59.6289606295264"
    },
    {
        "name": "Grimstorp",
        "lon": "14.6971634585313",
        "id": "GT",
        "lat": "57.5568406023617"
    },
    {
        "name": "Grimsås",
        "lon": "13.5436215965961",
        "id": "GRM",
        "lat": "57.4824144888485"
    },
    {
        "name": "Gripenberg",
        "lon": "14.8650177958243",
        "id": "GP",
        "lat": "57.9985976376419"
    },
    {
        "name": "Gripsholmsviken",
        "lon": "17.2078599787",
        "id": "XGHN",
        "lat": "59.2576137152"
    },
    {
        "name": "Grums",
        "lon": "13.1137647545891",
        "id": "GMS",
        "lat": "59.3530015044991"
    },
    {
        "name": "Grundbro",
        "lon": "17.1022369053796",
        "id": "GRU",
        "lat": "59.2903908083262"
    },
    {
        "name": "Grycksbo",
        "lon": "15.4802615426697",
        "id": "GYO",
        "lat": "60.6874698949101"
    },
    {
        "country": "XX",
        "name": "Grythyttan",
        "lon": "14.5304854323183",
        "id": "GHY",
        "lat": "59.7038422771185"
    },
    {
        "name": "Grythyttans norra",
        "lon": "14.5150340125796",
        "id": "GHYN",
        "lat": "59.73887919131"
    },
    {
        "name": "Gryttje",
        "lon": "17.2807345112313",
        "id": "GRY",
        "lat": "62.0717495082617"
    },
    {
        "name": "Gräfsnäs",
        "lon": "12.4904591663",
        "id": "XGR",
        "lat": "58.0805180497"
    },
    {
        "name": "Grängesberg",
        "lon": "15.0034320838631",
        "id": "GG",
        "lat": "60.0750375136206"
    },
    {
        "name": "Grängesbergs malmbangård",
        "lon": "14.9816958916498",
        "id": "GGM",
        "lat": "60.0636147905807"
    },
    {
        "name": "Gräsberg",
        "lon": "15.2232506534518",
        "id": "GÄG",
        "lat": "60.2242972016832"
    },
    {
        "name": "Grästorp",
        "lon": "12.6857774448317",
        "id": "GOP",
        "lat": "58.3345934306473"
    },
    {
        "name": "Gröndalsviken",
        "lon": "17.9317290232928",
        "id": "GDV",
        "lat": "58.8992532002635"
    },
    {
        "name": "Grönåsen",
        "lon": "17.3894954094766",
        "id": "GNÅ",
        "lat": "63.3355529375859"
    },
    {
        "name": "Grötingen",
        "lon": "15.4847265449668",
        "id": "GRÖ",
        "lat": "62.8540056434872"
    },
    {
        "name": "Gubbero",
        "lon": "11.998249622918",
        "id": "GRO",
        "lat": "57.7092203475262"
    },
    {
        "country": "NO",
        "name": "Gudå",
        "lon": "12.0974095219406",
        "id": "XGU",
        "lat": "63.3158078346593"
    },
    {
        "name": "Gula huset",
        "lon": "18.0043247969364",
        "id": "GHU",
        "lat": "59.3754503304677"
    },
    {
        "name": "Gullberna",
        "lon": "15.6143366275286",
        "id": "GUA",
        "lat": "56.1876088078366"
    },
    {
        "name": "Gullringen",
        "lon": "15.701300301253",
        "id": "GNG",
        "lat": "57.8049695127455"
    },
    {
        "name": "Gullspång",
        "lon": "14.1029595096215",
        "id": "GSP",
        "lat": "58.9853172460045"
    },
    {
        "name": "Gullträsk",
        "lon": "21.1910168027753",
        "id": "GLT",
        "lat": "66.1955985761257"
    },
    {
        "name": "Gunnarn",
        "lon": "17.6749418210237",
        "id": "GUN",
        "lat": "65.0023050509824"
    },
    {
        "name": "Gunnarsbyn",
        "lon": "12.9063606212873",
        "id": "GUY",
        "lat": "59.6254480670702"
    },
    {
        "name": "Gunnesbo",
        "lon": "13.168516644924",
        "id": "GNB",
        "lat": "55.7257554997003"
    },
    {
        "name": "Gunsen",
        "lon": "21.0978814148155",
        "id": "GSE",
        "lat": "64.7178819504734"
    },
    {
        "name": "Gunsta",
        "lon": "17.8342038008",
        "id": "XGA",
        "lat": "59.8527956428"
    },
    {
        "name": "Gussi",
        "lon": "17.0964354806675",
        "id": "GUI",
        "lat": "61.2345399005109"
    },
    {
        "name": "Gustafs",
        "lon": "15.5947169651345",
        "id": "GTF",
        "lat": "60.4013691520206"
    },
    {
        "name": "Gyllebosjö",
        "lon": "14.2113615661",
        "id": "XGYB",
        "lat": "55.5975350686"
    },
    {
        "name": "Gyttorp",
        "lon": "14.9712263985663",
        "id": "GYT",
        "lat": "59.5016629792161"
    },
    {
        "name": "Gyttorp",
        "lon": "14.9712263986",
        "id": "XGYT",
        "lat": "59.5016629792"
    },
    {
        "name": "Gålnäs",
        "lon": "18.6082239439966",
        "id": "GÅN",
        "lat": "63.2818778176136"
    },
    {
        "name": "Gångbron",
        "lon": "18.0193355641692",
        "id": "GÅ",
        "lat": "59.3468241256401"
    },
    {
        "name": "Gårdsjö",
        "lon": "14.3338023813323",
        "id": "GDÖ",
        "lat": "58.872130484702"
    },
    {
        "name": "Gårdsjön",
        "lon": "17.3789369745797",
        "id": "GÖN",
        "lat": "62.1984377398357"
    },
    {
        "name": "Gårdveda",
        "lon": "15.7548355342",
        "id": "XGÅV",
        "lat": "57.3822022534"
    },
    {
        "name": "Gåshaga",
        "lon": "18.2279022474",
        "id": "WGÅH",
        "lat": "59.3567235392"
    },
    {
        "name": "Gåshaga brygga",
        "lon": "18.2339008158",
        "id": "WGÅB",
        "lat": "59.3568713614"
    },
    {
        "name": "Gåsträsken",
        "lon": "22.3477112098388",
        "id": "GEN",
        "lat": "66.0471403831779"
    },
    {
        "name": "Gåvetorp",
        "lon": "14.5793651823883",
        "id": "GÅP",
        "lat": "56.9424635839947"
    },
    {
        "name": "Gäddmyr",
        "lon": "20.1929925949087",
        "id": "GY",
        "lat": "67.679482795194"
    },
    {
        "name": "Gällivare",
        "lon": "20.6510744970046",
        "id": "GV",
        "lat": "67.1333248854923"
    },
    {
        "name": "Gällö",
        "lon": "15.2294994855898",
        "id": "GÖ",
        "lat": "62.9112338192538"
    },
    {
        "name": "Gärdala",
        "lon": "15.7148207556455",
        "id": "GÄD",
        "lat": "58.1764140110752"
    },
    {
        "name": "Gärsnäs",
        "lon": "14.1815566080188",
        "id": "GSS",
        "lat": "55.546497527575"
    },
    {
        "name": "Gävle C",
        "lon": "17.1517500228729",
        "id": "GÄ",
        "lat": "60.6760861303328"
    },
    {
        "name": "Gävle fordonsmagasinet",
        "lon": "17.1517500229",
        "id": "GÄ.F",
        "lat": "60.6760861303"
    },
    {
        "name": "Gävle gasklockorna",
        "lon": "17.1517500229",
        "id": "GÄ.G",
        "lat": "60.6760861303"
    },
    {
        "name": "Gävle godsbangård",
        "lon": "17.1556086634838",
        "id": "GÄB",
        "lat": "60.6812154608194"
    },
    {
        "name": "Gävle hamn",
        "lon": "17.1517500229",
        "id": "GÄ.H",
        "lat": "60.6760861303"
    },
    {
        "name": "Gävle järnvägsmuseum",
        "lon": "17.1517500229",
        "id": "GÄ.J",
        "lat": "60.6760861303"
    },
    {
        "name": "Göringen",
        "lon": "15.3732363468195",
        "id": "GRN",
        "lat": "61.2262253234658"
    },
    {
        "name": "Göteborg C",
        "lon": "11.9738943376447",
        "id": "G",
        "lat": "57.708900773272"
    },
    {
        "name": "Göteborg Combiterminal",
        "lon": "11.9922123390585",
        "id": "GBCO",
        "lat": "57.7176243387586"
    },
    {
        "name": "Göteborg Kville",
        "lon": "11.9825719270419",
        "id": "GK",
        "lat": "57.7272993695498"
    },
    {
        "name": "Göteborg Marieholm",
        "lon": "12.0049514457567",
        "id": "GBM",
        "lat": "57.7354076400615"
    },
    {
        "name": "Göteborg Skandiahamnen",
        "lon": "11.8592415168613",
        "id": "GSH",
        "lat": "57.699347011908"
    },
    {
        "name": "Göteborgs norra",
        "lon": "11.9922123390585",
        "id": "GB",
        "lat": "57.7176243387586"
    },
    {
        "name": "Göteborg Sävenäs",
        "lon": "12.0186184662148",
        "id": "GSV",
        "lat": "57.7247293969754"
    },
    {
        "name": "Göteborg Volvo",
        "lon": "11.8225990599451",
        "id": "GVO",
        "lat": "57.7257026010819"
    },
    {
        "name": "Habo",
        "lon": "14.0769505789793",
        "id": "HO",
        "lat": "57.906393124253"
    },
    {
        "name": "Hackås",
        "lon": "14.5221676240099",
        "id": "HKS",
        "lat": "62.9242005041217"
    },
    {
        "name": "Hagalund",
        "lon": "18.0056118348119",
        "id": "HGL",
        "lat": "59.3720868285043"
    },
    {
        "name": "Hagaström",
        "lon": "17.0680961948826",
        "id": "HG",
        "lat": "60.6704166915538"
    },
    {
        "name": "Hagge",
        "lon": "15.3100461501729",
        "id": "HGE",
        "lat": "60.1313778203711"
    },
    {
        "country": "NO",
        "name": "Halden",
        "lon": "11.383925",
        "id": "NO.HLD",
        "lat": "59.120411"
    },
    {
        "name": "Hallinden",
        "lon": "11.5278386143978",
        "id": "HAL",
        "lat": "58.4594677402775"
    },
    {
        "name": "Hallsberg",
        "lon": "15.1112478014609",
        "id": "HPBG",
        "lat": "59.0671090561714"
    },
    {
        "name": "Hallsberg ersättningsbuss hpl 1",
        "lon": "15.1112478014609",
        "id": "HERS",
        "lat": "59.0671090561714"
    },
    {
        "name": "Hallsberg Posten",
        "lon": "15.0462863547811",
        "id": "HPN",
        "lat": "59.0552043560958"
    },
    {
        "name": "Hallsbergs rangerbangård",
        "lon": "15.059332683087",
        "id": "HRBG",
        "lat": "59.0586565623175"
    },
    {
        "name": "Hallstahammar",
        "lon": "16.220194421042",
        "id": "HH",
        "lat": "59.6146559252741"
    },
    {
        "name": "Hallstavik",
        "lon": "18.5958167239588",
        "id": "HAK",
        "lat": "60.0507687808495"
    },
    {
        "name": "Hallviken",
        "lon": "15.4739987789794",
        "id": "HVN",
        "lat": "63.7258832958543"
    },
    {
        "name": "Halmstad C",
        "lon": "12.8648189655792",
        "id": "HD",
        "lat": "56.6696029119961"
    },
    {
        "name": "Halmstad rangerbangård",
        "lon": "12.8862876566538",
        "id": "HDR",
        "lat": "56.6534702432019"
    },
    {
        "name": "Hammar",
        "lon": "17.7632521893831",
        "id": "HMR",
        "lat": "63.0173106768798"
    },
    {
        "name": "Hamra",
        "lon": "12.3104708921201",
        "id": "HAA",
        "lat": "57.0790768817465"
    },
    {
        "name": "Hamrångefjärden",
        "lon": "17.0625378782524",
        "id": "HFJ",
        "lat": "60.9011047673124"
    },
    {
        "name": "Hanaskog",
        "lon": "14.093180184283",
        "id": "HSK",
        "lat": "56.1583593501009"
    },
    {
        "name": "Handen station",
        "lon": "18.1340833918127",
        "id": "HND",
        "lat": "59.1662851250908"
    },
    {
        "name": "Haparanda",
        "lon": "24.1311333859202",
        "id": "HP",
        "lat": "65.8281113738111"
    },
    {
        "name": "Harasjön",
        "lon": "17.8409431214209",
        "id": "HAN",
        "lat": "63.1734175510509"
    },
    {
        "name": "Hargshamn",
        "lon": "18.4727781622974",
        "id": "HRM",
        "lat": "60.1691903360841"
    },
    {
        "name": "Harmånger",
        "lon": "17.2688783055588",
        "id": "HÅG",
        "lat": "61.9035148292181"
    },
    {
        "name": "Harrträsk",
        "lon": "20.7143043707102",
        "id": "HRT",
        "lat": "67.0334564583013"
    },
    {
        "name": "Harrå",
        "lon": "20.1026690963894",
        "id": "HAR",
        "lat": "67.4062030420357"
    },
    {
        "name": "Hasselfors",
        "lon": "14.6463407812312",
        "id": "HS",
        "lat": "59.0856417089442"
    },
    {
        "name": "Hasslarp",
        "lon": "12.8161962605724",
        "id": "HLP",
        "lat": "56.1357024003641"
    },
    {
        "name": "Hasslerör",
        "lon": "13.9395394965477",
        "id": "HSR",
        "lat": "58.750193686938"
    },
    {
        "name": "Haxäng",
        "lon": "14.8334883866751",
        "id": "HXÄ",
        "lat": "63.0562468155155"
    },
    {
        "name": "Heberg",
        "lon": "12.6444679187393",
        "id": "HE",
        "lat": "56.8733594440504"
    },
    {
        "name": "Heby",
        "lon": "16.853164744942",
        "id": "HY",
        "lat": "59.9404344931839"
    },
    {
        "name": "Hede",
        "lon": "12.0843675299966",
        "id": "KHE",
        "lat": "57.5141189180787"
    },
    {
        "name": "Hedemora",
        "lon": "15.9802354776034",
        "id": "HDM",
        "lat": "60.2741043494171"
    },
    {
        "name": "Hedensbyn",
        "lon": "21.0107318456574",
        "id": "HSB",
        "lat": "64.7448137980172"
    },
    {
        "name": "Hedlandet",
        "lon": "17.2322362914",
        "id": "XHDT",
        "lat": "59.2456808988"
    },
    {
        "name": "Hednoret",
        "lon": "21.5318705105833",
        "id": "HT",
        "lat": "65.8234458572003"
    },
    {
        "country": "NO",
        "name": "Hegra",
        "lon": "12.0974095219406",
        "id": "XHRA",
        "lat": "63.3158078346593"
    },
    {
        "name": "Hela Sverige",
        "lon": "18.0572670029254",
        "id": "HESV",
        "lat": "59.3299708407069"
    },
    {
        "name": "Helenelund",
        "lon": "17.9631198794781",
        "id": "HEL",
        "lat": "59.4085359624385"
    },
    {
        "name": "Helgum",
        "lon": "16.9499072485732",
        "id": "HLM",
        "lat": "63.1510167918012"
    },
    {
        "country": "NO",
        "name": "Hell",
        "lon": "12.0974095219406",
        "id": "XHEL",
        "lat": "63.3158078346593"
    },
    {
        "country": "DK",
        "name": "Hellerup",
        "lon": "12.7001284231991",
        "id": "ZHL",
        "lat": "55.6002314026954"
    },
    {
        "name": "Helmershus",
        "lon": "14.0256085300526",
        "id": "HES",
        "lat": "57.1454042082895"
    },
    {
        "name": "Helsingborg C",
        "lon": "12.6951703696603",
        "id": "HB",
        "lat": "56.0435376872662"
    },
    {
        "country": "DK",
        "name": "Helsingör",
        "lon": "12.6000075324475",
        "id": "DK.HG",
        "lat": "56.0333369699492"
    },
    {
        "country": "DK",
        "name": "Helsingör",
        "lon": "12.7001284231991",
        "id": "ZHG",
        "lat": "55.6002314026954"
    },
    {
        "name": "Hemfosa",
        "lon": "17.9765802784788",
        "id": "HFA",
        "lat": "59.0687886804702"
    },
    {
        "name": "Hemlig resa",
        "lon": "18.0572670029",
        "id": "HE.RE",
        "lat": "59.3299708407"
    },
    {
        "name": "Hennan",
        "lon": "15.9023940091049",
        "id": "HNN",
        "lat": "62.0218523818725"
    },
    {
        "name": "Henriksdal",
        "lon": "18.1082137511",
        "id": "XHED",
        "lat": "59.3122566295"
    },
    {
        "name": "Herrhult",
        "lon": "14.3107462111026",
        "id": "HLT",
        "lat": "59.6498905619521"
    },
    {
        "name": "Herrljunga",
        "lon": "13.0209486775446",
        "id": "HR",
        "lat": "58.0790570023653"
    },
    {
        "name": "Hesselby",
        "lon": "18.5312218073",
        "id": "XHY",
        "lat": "57.5444708440"
    },
    {
        "name": "Hestra",
        "lon": "13.5957537845504",
        "id": "HET",
        "lat": "57.4431079090914"
    },
    {
        "name": "Hillared",
        "lon": "13.1579523747673",
        "id": "HIL",
        "lat": "57.6299036699833"
    },
    {
        "name": "Hilleby",
        "lon": "17.1715047514177",
        "id": "HLY",
        "lat": "60.7303847446683"
    },
    {
        "country": "XX",
        "name": "Hillerstorp",
        "lon": "13.8836280793254",
        "id": "HTO",
        "lat": "57.3135939294987"
    },
    {
        "name": "Hindås",
        "lon": "12.4509557958577",
        "id": "HÅS",
        "lat": "57.704429981076"
    },
    {
        "name": "Hinsnoret",
        "lon": "15.6283464264516",
        "id": "HNO",
        "lat": "60.5424617643555"
    },
    {
        "name": "Hissmofors",
        "lon": "14.4578339246898",
        "id": "HMFS",
        "lat": "63.3198087018341"
    },
    {
        "name": "Hjorted",
        "lon": "16.2438922372",
        "id": "XHJT",
        "lat": "57.6627431191"
    },
    {
        "name": "Hjorthagen",
        "lon": "17.2019929526",
        "id": "XHHN",
        "lat": "59.2566800381"
    },
    {
        "name": "Hjortöström",
        "lon": "15.5507314414",
        "id": "XHJM",
        "lat": "57.3120865543"
    },
    {
        "name": "Hjulsbro",
        "lon": "15.7165450181231",
        "id": "HJ",
        "lat": "58.3793969668097"
    },
    {
        "name": "Hjältevad",
        "lon": "15.3439759786463",
        "id": "HVD",
        "lat": "57.628920281488"
    },
    {
        "name": "Hjärup",
        "lon": "13.1361803318417",
        "id": "HJP",
        "lat": "55.6738087808494"
    },
    {
        "name": "Hofors",
        "lon": "16.266177324608",
        "id": "HFR",
        "lat": "60.5695825302271"
    },
    {
        "name": "Hok",
        "lon": "14.267285197866",
        "id": "HOK",
        "lat": "57.5205835281302"
    },
    {
        "name": "Holmfors",
        "lon": "21.6876441591087",
        "id": "HFS",
        "lat": "65.903152436286"
    },
    {
        "name": "Holmsjö",
        "lon": "15.542248196115",
        "id": "HMÖ",
        "lat": "56.4222378150914"
    },
    {
        "name": "Holmsund",
        "lon": "20.3689839544615",
        "id": "HOD",
        "lat": "63.7084763237188"
    },
    {
        "name": "Holmsveden",
        "lon": "16.7190918434827",
        "id": "HDN",
        "lat": "61.119708853885"
    },
    {
        "name": "Holmån",
        "lon": "17.6483338359192",
        "id": "HOÅ",
        "lat": "63.3912933918193"
    },
    {
        "name": "Holsbybrunn",
        "lon": "15.1952567382036",
        "id": "HBR",
        "lat": "57.4277542715171"
    },
    {
        "name": "Horndal",
        "lon": "16.413709053769",
        "id": "HL",
        "lat": "60.3047627499136"
    },
    {
        "name": "Horndals Bruk",
        "lon": "16.4134623096798",
        "id": "HLR",
        "lat": "60.2961174010251"
    },
    {
        "name": "Hornkullen",
        "lon": "14.2911363919851",
        "id": "HKN",
        "lat": "59.6257373551157"
    },
    {
        "name": "Horred",
        "lon": "12.4776537988102",
        "id": "HRE",
        "lat": "57.3537220020458"
    },
    {
        "name": "Hoting",
        "lon": "16.1991096041634",
        "id": "HTG",
        "lat": "64.1155930250527"
    },
    {
        "name": "Hoting camping",
        "lon": "16.167712721786",
        "id": "HCP",
        "lat": "64.109161685169"
    },
    {
        "name": "Hova",
        "lon": "14.2151761772792",
        "id": "HOVA",
        "lat": "58.8547774150728"
    },
    {
        "name": "Hovmantorp",
        "lon": "15.1395841684983",
        "id": "HVP",
        "lat": "56.7862197343469"
    },
    {
        "name": "Hovslätt",
        "lon": "14.1239484803717",
        "id": "HVS",
        "lat": "57.7348856318414"
    },
    {
        "name": "Hovsta",
        "lon": "15.2186933359002",
        "id": "HSA",
        "lat": "59.3491182006911"
    },
    {
        "name": "Huddinge",
        "lon": "17.9780431297476",
        "id": "HU",
        "lat": "59.2357454503752"
    },
    {
        "name": "Hudiksvall",
        "lon": "17.1091815976973",
        "id": "HKL",
        "lat": "61.7246637222426"
    },
    {
        "name": "Hudiksvall xHkl)",
        "lon": "17.0834195636",
        "id": "XHKL",
        "lat": "61.7039182641"
    },
    {
        "name": "Hulingsryd",
        "lon": "15.8351642679635",
        "id": "HUD",
        "lat": "57.5009927955463"
    },
    {
        "name": "Hult",
        "lon": "15.1287904377788",
        "id": "HUL",
        "lat": "57.6444851118759"
    },
    {
        "name": "Hultanäs",
        "lon": "15.4386990533",
        "id": "XHÄS",
        "lat": "57.2150771698"
    },
    {
        "name": "Hultarp",
        "lon": "15.6109797123",
        "id": "XHAP",
        "lat": "57.3432945953"
    },
    {
        "name": "Hultsfred",
        "lon": "15.8471133291811",
        "id": "HF",
        "lat": "57.485911212756"
    },
    {
        "name": "Hultsfred (xHpf)",
        "lon": "15.8507563685",
        "id": "XHPF",
        "lat": "57.4811794955"
    },
    {
        "name": "Hultsfreds Hembygdspark",
        "lon": "15.8618828310",
        "id": "XHHF",
        "lat": "57.4961418640"
    },
    {
        "country": "DK",
        "name": "Humlebaek",
        "lon": "12.7001284231991",
        "id": "ZHUM",
        "lat": "55.6002314026954"
    },
    {
        "name": "Hundsjön",
        "lon": "21.8026718609845",
        "id": "HUÖ",
        "lat": "65.9652406347867"
    },
    {
        "name": "Huskvarna",
        "lon": "14.2647650527611",
        "id": "HKA",
        "lat": "57.7823655707515"
    },
    {
        "name": "Hussjöby",
        "lon": "17.6057461983029",
        "id": "HSY",
        "lat": "62.5474798308366"
    },
    {
        "name": "Husum",
        "lon": "19.1567121008797",
        "id": "HUM",
        "lat": "63.3443638994547"
    },
    {
        "name": "Husum norra",
        "lon": "19.1675938442452",
        "id": "HUMN",
        "lat": "63.3483427404631"
    },
    {
        "name": "Huvudsta",
        "lon": "18.0006470314368",
        "id": "HUV",
        "lat": "59.3547592623866"
    },
    {
        "name": "Hybo",
        "lon": "16.1927160160",
        "id": "XHBO",
        "lat": "61.7964978822"
    },
    {
        "name": "Hyllie",
        "lon": "12.9763343069827",
        "id": "HIE",
        "lat": "55.5631479708837"
    },
    {
        "name": "Hyllstofta",
        "lon": "13.2858793184254",
        "id": "HYL",
        "lat": "56.1324640426847"
    },
    {
        "name": "Hyltebruk",
        "lon": "13.2364039822669",
        "id": "HYB",
        "lat": "56.9982044472658"
    },
    {
        "name": "Håkantorp",
        "lon": "12.9076468208275",
        "id": "HÅP",
        "lat": "58.3066639270851"
    },
    {
        "name": "Hålbergsliden",
        "lon": "19.5219309189",
        "id": "HÅB",
        "lat": "65.3688250667"
    },
    {
        "name": "Hållsta",
        "lon": "16.4586141130094",
        "id": "HÅL",
        "lat": "59.2952200417827"
    },
    {
        "name": "Håmojåkk",
        "lon": "20.167928360328",
        "id": "HÅK",
        "lat": "67.3240848474706"
    },
    {
        "name": "Håsjö",
        "lon": "16.2729610575055",
        "id": "HÅ",
        "lat": "63.0233981033776"
    },
    {
        "name": "Håverud",
        "lon": "12.4129095957755",
        "id": "HVR",
        "lat": "58.8245969387184"
    },
    {
        "name": "Hägernäs",
        "lon": "18.1246014067",
        "id": "XHGÄ",
        "lat": "59.4510030653"
    },
    {
        "name": "Häggenås",
        "lon": "14.8792184258663",
        "id": "HGS",
        "lat": "63.3858736914577"
    },
    {
        "name": "Häggsjön",
        "lon": "17.7314099288822",
        "id": "HÄN",
        "lat": "62.5745222823783"
    },
    {
        "name": "Häggvik",
        "lon": "17.9337082141154",
        "id": "HGV",
        "lat": "59.4432297348841"
    },
    {
        "name": "Häljarp",
        "lon": "12.9125576978218",
        "id": "HÄP",
        "lat": "55.8608240699846"
    },
    {
        "name": "Hällefors",
        "lon": "14.5180500147365",
        "id": "HLF",
        "lat": "59.777745668554"
    },
    {
        "name": "Hälleforsnäs",
        "lon": "16.5025592827759",
        "id": "HNÄ",
        "lat": "59.1619964602142"
    },
    {
        "name": "Hällekis",
        "lon": "13.4330235794601",
        "id": "HLK",
        "lat": "58.6300547915215"
    },
    {
        "name": "Hällenyland",
        "lon": "17.7882112111705",
        "id": "HNL",
        "lat": "62.6029787859395"
    },
    {
        "country": "XX",
        "name": "Hällevadsholm",
        "lon": "11.5352237829387",
        "id": "HLV",
        "lat": "58.5800096679798"
    },
    {
        "name": "Hällnäs",
        "lon": "19.6258875784116",
        "id": "HLS",
        "lat": "64.3054741951293"
    },
    {
        "name": "Hälsingenybo",
        "lon": "15.8329362657758",
        "id": "HNB",
        "lat": "62.0706661707682"
    },
    {
        "name": "Hämrasviken",
        "lon": "18.0408998764872",
        "id": "HÄB",
        "lat": "63.2240591890658"
    },
    {
        "name": "Härad",
        "lon": "16.9131846995582",
        "id": "HÄD",
        "lat": "59.3570731424317"
    },
    {
        "name": "Härnön",
        "lon": "17.2887011078",
        "id": "XHÖN",
        "lat": "59.2445559710"
    },
    {
        "name": "Härnösand",
        "lon": "17.9283861919011",
        "id": "HSD",
        "lat": "62.6352730339713"
    },
    {
        "name": "Härryda",
        "lon": "12.3036031538067",
        "id": "HÄY",
        "lat": "57.6896658488338"
    },
    {
        "name": "Hässleholm C",
        "lon": "13.7632071679093",
        "id": "HM",
        "lat": "56.1579059381784"
    },
    {
        "name": "Hästbo",
        "lon": "16.4552582545176",
        "id": "HÄ",
        "lat": "60.4490396338384"
    },
    {
        "name": "Hästveda",
        "lon": "13.934798039245",
        "id": "HV",
        "lat": "56.2885674405201"
    },
    {
        "name": "Högberga",
        "lon": "18.1938765298",
        "id": "WHÖB",
        "lat": "59.3443423691"
    },
    {
        "name": "Högboda",
        "lon": "13.0511549912358",
        "id": "HBD",
        "lat": "59.5575199259095"
    },
    {
        "name": "Högbränna",
        "lon": "19.4284063650551",
        "id": "HBÄ",
        "lat": "63.7687138744412"
    },
    {
        "name": "Högbysjön",
        "lon": "18.8901705689998",
        "id": "HÖG",
        "lat": "63.3127059453288"
    },
    {
        "name": "Högdalen",
        "lon": "18.0419819857223",
        "id": "HÖN",
        "lat": "59.2573689861666"
    },
    {
        "name": "Höglandstorget",
        "lon": "17.9397778851",
        "id": "WHLT",
        "lat": "59.3234741320"
    },
    {
        "name": "Högsby",
        "lon": "16.0274645674122",
        "id": "HÖY",
        "lat": "57.1658502891214"
    },
    {
        "name": "Högsjö",
        "lon": "15.7228574469014",
        "id": "HGÖ",
        "lat": "59.0500725867831"
    },
    {
        "name": "Höja",
        "lon": "14.1344664000724",
        "id": "HÖJA",
        "lat": "59.2998373246443"
    },
    {
        "name": "Hökmora",
        "lon": "16.1572955813387",
        "id": "HMA",
        "lat": "60.0621265451543"
    },
    {
        "name": "Hökön",
        "lon": "14.2239981958829",
        "id": "HKÖ",
        "lat": "56.473960395021"
    },
    {
        "name": "Hölö",
        "lon": "17.5348125919545",
        "id": "HLÖ",
        "lat": "59.0259338181336"
    },
    {
        "country": "XX",
        "name": "Hörle",
        "lon": "14.0538256826684",
        "id": "HRL",
        "lat": "57.259075356028"
    },
    {
        "name": "Hörnefors",
        "lon": "19.9123428554802",
        "id": "HÖF",
        "lat": "63.633001327639"
    },
    {
        "name": "Hörnsjö",
        "lon": "19.5074420920899",
        "id": "HSÖ",
        "lat": "63.7953488145786"
    },
    {
        "name": "Hösjömo",
        "lon": "14.2283426386",
        "id": "XHÖO",
        "lat": "57.1509563447"
    },
    {
        "name": "Hössjön",
        "lon": "19.9723021572373",
        "id": "HÖS",
        "lat": "63.6553208561634"
    },
    {
        "name": "Höör",
        "lon": "13.5431090328714",
        "id": "HÖ",
        "lat": "55.9375167031888"
    },
    {
        "name": "Igelboda",
        "lon": "18.2754300208",
        "id": "XIGB",
        "lat": "59.2899305117"
    },
    {
        "name": "Igelstorp",
        "lon": "13.9783241405503",
        "id": "IP",
        "lat": "58.397698041702"
    },
    {
        "name": "Iggesund",
        "lon": "17.0813644176848",
        "id": "ID",
        "lat": "61.6447875098384"
    },
    {
        "name": "Impregneringen",
        "lon": "14.3218874311",
        "id": "XIPR",
        "lat": "57.1912128072"
    },
    {
        "name": "Ingatorp",
        "lon": "15.4170819936106",
        "id": "IGT",
        "lat": "57.6344851437568"
    },
    {
        "country": "XX",
        "name": "Ingmår",
        "lon": "13.1752824911869",
        "id": "IMR",
        "lat": "59.8784715272612"
    },
    {
        "name": "Insjön",
        "lon": "15.0944054750575",
        "id": "IN",
        "lat": "60.6755121201616"
    },
    {
        "name": "Isätra",
        "lon": "16.7440765237807",
        "id": "IST",
        "lat": "59.9376649002224"
    },
    {
        "country": "XX",
        "name": "Ivarsbjörke",
        "lon": "13.1439411299693",
        "id": "IBE",
        "lat": "59.9595427369423"
    },
    {
        "name": "Jagbacken",
        "lon": "17.1840023808",
        "id": "XJBN",
        "lat": "59.2480357783"
    },
    {
        "name": "Jakobsberg",
        "lon": "17.8331196029422",
        "id": "JKB",
        "lat": "59.4238058751293"
    },
    {
        "name": "Jakobshyttan",
        "lon": "15.1594205320057",
        "id": "JHO",
        "lat": "58.8080360266643"
    },
    {
        "name": "Jamtli",
        "lon": "14.6340428718594",
        "id": "JLI",
        "lat": "63.2041875774689"
    },
    {
        "name": "Jenny",
        "lon": "16.6417882266817",
        "id": "JY",
        "lat": "57.7557356539881"
    },
    {
        "name": "Johannedal",
        "lon": "17.3897944362264",
        "id": "JHL",
        "lat": "62.4348091054599"
    },
    {
        "name": "Johannisberg",
        "lon": "16.0288801262379",
        "id": "JBG",
        "lat": "62.5039963270602"
    },
    {
        "name": "Jokkmokk",
        "lon": "19.8400950284429",
        "id": "JK",
        "lat": "66.6070950559316"
    },
    {
        "name": "Jonsered",
        "lon": "12.1736234048061",
        "id": "JV",
        "lat": "57.7498461316442"
    },
    {
        "name": "Jonsered östra",
        "lon": "12.1921761057808",
        "id": "J",
        "lat": "57.7512115485472"
    },
    {
        "name": "Jordbro",
        "lon": "18.1266276178809",
        "id": "JBO",
        "lat": "59.1423353963561"
    },
    {
        "name": "Jordholmen",
        "lon": "13.1064754636781",
        "id": "JH",
        "lat": "55.4915224235205"
    },
    {
        "name": "Jularbo",
        "lon": "16.2577128450232",
        "id": "JU",
        "lat": "60.1583305029711"
    },
    {
        "name": "Juån",
        "lon": "15.5622724423512",
        "id": "JÅ",
        "lat": "62.3692451093775"
    },
    {
        "name": "Jädersbruk",
        "lon": "15.7983923527537",
        "id": "JBK",
        "lat": "59.4072246988353"
    },
    {
        "name": "Jädraås",
        "lon": "16.4682610810",
        "id": "XJÅS",
        "lat": "60.8422711878"
    },
    {
        "name": "Jämtlands Sikås",
        "lon": "15.206458409194",
        "id": "JS",
        "lat": "63.6261981894027"
    },
    {
        "name": "Järbo",
        "lon": "16.603101572025",
        "id": "JB",
        "lat": "60.7149561241527"
    },
    {
        "name": "Järle",
        "lon": "15.1512429488",
        "id": "XJ",
        "lat": "59.4642399047"
    },
    {
        "name": "Järlebo",
        "lon": "17.7419032248049",
        "id": "JLO",
        "lat": "60.1343908922902"
    },
    {
        "name": "Järlåsa",
        "lon": "17.2031204304556",
        "id": "JLA",
        "lat": "59.8850278305643"
    },
    {
        "name": "Järlövsby",
        "lon": "12.3612605079031",
        "id": "JÄY",
        "lat": "57.2785307697296"
    },
    {
        "name": "Järna",
        "lon": "17.5683888850013",
        "id": "JN",
        "lat": "59.0938175567837"
    },
    {
        "name": "Järneträsk",
        "lon": "20.7400921943646",
        "id": "JNT",
        "lat": "65.6389633492695"
    },
    {
        "name": "Järnforsen",
        "lon": "15.6208780750842",
        "id": "JÄF",
        "lat": "57.4089849744222"
    },
    {
        "name": "Järpen",
        "lon": "13.4721555791882",
        "id": "JPN",
        "lat": "63.3424027706532"
    },
    {
        "name": "Järpås",
        "lon": "12.9699504882904",
        "id": "JPS",
        "lat": "58.3789839421317"
    },
    {
        "name": "Järvsö",
        "lon": "16.1720935483047",
        "id": "JR",
        "lat": "61.7156944284555"
    },
    {
        "name": "Jönköping C",
        "lon": "14.1645737876956",
        "id": "JÖ",
        "lat": "57.784457722356"
    },
    {
        "name": "Jönköpings godsbangård",
        "lon": "14.1731797633803",
        "id": "JÖGB",
        "lat": "57.7640603511157"
    },
    {
        "name": "Jönåker",
        "lon": "16.7246579122619",
        "id": "JÅR",
        "lat": "58.7433425714454"
    },
    {
        "name": "Jörn",
        "lon": "20.029360442335",
        "id": "JRN",
        "lat": "65.0533235797813"
    },
    {
        "name": "Kaisepakte",
        "lon": "19.3033266295524",
        "id": "KPE",
        "lat": "68.2856877923106"
    },
    {
        "country": "XX",
        "name": "Kaitum",
        "lon": "20.1032690746827",
        "id": "KTM",
        "lat": "67.5425773904077"
    },
    {
        "name": "Kalix",
        "lon": "23.18095233872",
        "id": "KLX",
        "lat": "65.8564577489315"
    },
    {
        "name": "Kalixfors",
        "lon": "20.208554638062",
        "id": "KX",
        "lat": "67.7415169141973"
    },
    {
        "name": "Kallholsfors",
        "lon": "14.7042428505333",
        "id": "KLH",
        "lat": "61.1673700884778"
    },
    {
        "name": "Kallhäll",
        "lon": "17.8072890282614",
        "id": "KHÄ",
        "lat": "59.452344174215"
    },
    {
        "name": "Kalmar C",
        "lon": "16.3603252020501",
        "id": "KAC",
        "lat": "56.661313811844"
    },
    {
        "name": "Kalmar södra",
        "lon": "16.3310823971197",
        "id": "KAS",
        "lat": "56.6667063511455"
    },
    {
        "country": "DK",
        "name": "Kalvebod",
        "lon": "12.7001284231991",
        "id": "ZKLV",
        "lat": "55.6002314026954"
    },
    {
        "name": "Kambshagtorp",
        "lon": "18.5021021020",
        "id": "XKHT",
        "lat": "57.5201561538"
    },
    {
        "name": "Kapellet",
        "lon": "14.5884706250668",
        "id": "KT",
        "lat": "59.4020576991004"
    },
    {
        "name": "Karbenning",
        "lon": "16.0732126703556",
        "id": "KBN",
        "lat": "60.0368385716559"
    },
    {
        "name": "Karlberg",
        "lon": "18.0284109281334",
        "id": "KE",
        "lat": "59.3402692332192"
    },
    {
        "name": "Karlsberg",
        "lon": "15.6407232345177",
        "id": "KSG",
        "lat": "62.9413180795093"
    },
    {
        "name": "Karlsborg",
        "lon": "14.5098338489138",
        "id": "KBG",
        "lat": "58.529790670307"
    },
    {
        "name": "Karlsby",
        "lon": "15.1442402629118",
        "id": "KLY",
        "lat": "58.632761741644"
    },
    {
        "name": "Karlshamn",
        "lon": "14.866386877829",
        "id": "KH",
        "lat": "56.1771390180765"
    },
    {
        "name": "Karlskoga centrum",
        "lon": "14.5228777846796",
        "id": "KSAC",
        "lat": "59.3248284562912"
    },
    {
        "name": "Karlskoga Dalbacksgatan",
        "lon": "14.5098174325958",
        "id": "KASD",
        "lat": "59.3263605373516"
    },
    {
        "name": "Karlskrona C",
        "lon": "15.5852513342806",
        "id": "CK",
        "lat": "56.1670568454415"
    },
    {
        "name": "Karlstad C",
        "lon": "13.499025358176",
        "id": "KS",
        "lat": "59.3778909271303"
    },
    {
        "name": "Karlsvik",
        "lon": "22.0319655318",
        "id": "LE.K",
        "lat": "65.5974171321"
    },
    {
        "name": "Karpalund",
        "lon": "14.0946726857424",
        "id": "KAP",
        "lat": "56.0407357669907"
    },
    {
        "name": "Karsbäcken",
        "lon": "19.9959862240819",
        "id": "KRB",
        "lat": "64.9028907929694"
    },
    {
        "name": "Karsjö",
        "lon": "16.2615415792205",
        "id": "KSÖ",
        "lat": "61.6402287327673"
    },
    {
        "name": "Karungi",
        "lon": "23.9543642591248",
        "id": "KRI",
        "lat": "66.0383798322751"
    },
    {
        "name": "Katrineholm C",
        "lon": "16.2091836317089",
        "id": "K",
        "lat": "58.9965116761731"
    },
    {
        "name": "Kattarp",
        "lon": "12.7783404038552",
        "id": "KA",
        "lat": "56.1449222740718"
    },
    {
        "country": "NO",
        "name": "Katterat",
        "lon": "17.9659152034516",
        "id": "NO.KAT",
        "lat": "68.3976396117165"
    },
    {
        "country": "NO",
        "name": "Katterat",
        "lon": "18.127511442932",
        "id": "XKAT",
        "lat": "68.4256599118234"
    },
    {
        "name": "Katterjåkk",
        "lon": "18.1608491171843",
        "id": "KJÅ",
        "lat": "68.4201576230844"
    },
    {
        "name": "Kattisavan",
        "lon": "18.1599783811275",
        "id": "KAT",
        "lat": "64.7533732386925"
    },
    {
        "name": "Kattisträsk",
        "lon": "20.032824102669",
        "id": "KAÄ",
        "lat": "64.6893252392338"
    },
    {
        "name": "Kejsarbäcken",
        "lon": "14.7125461013",
        "id": "KEB",
        "lat": "59.8334492842"
    },
    {
        "name": "Keräsjoki",
        "lon": "23.9239572985922",
        "id": "KEI",
        "lat": "65.8466242942182"
    },
    {
        "name": "Kil",
        "lon": "13.3158816771107",
        "id": "KIL",
        "lat": "59.5047429875315"
    },
    {
        "name": "Kilafors",
        "lon": "16.5703987918776",
        "id": "KLS",
        "lat": "61.2306897824226"
    },
    {
        "name": "Killeberg",
        "lon": "14.0984575587246",
        "id": "KR",
        "lat": "56.4748374560192"
    },
    {
        "name": "Kilsmo",
        "lon": "15.5356590509164",
        "id": "KM",
        "lat": "59.0656914942272"
    },
    {
        "name": "Kilvo",
        "lon": "20.8946717765949",
        "id": "KLV",
        "lat": "66.8308624494413"
    },
    {
        "name": "Kimstad",
        "lon": "15.9688494096874",
        "id": "KMS",
        "lat": "58.536269119232"
    },
    {
        "name": "Kinna",
        "lon": "12.6974464862455",
        "id": "KIN",
        "lat": "57.5056466974136"
    },
    {
        "name": "Kinnared",
        "lon": "13.1070562720579",
        "id": "KID",
        "lat": "57.0252209200002"
    },
    {
        "name": "Kiruna",
        "lon": "20.1992306071148",
        "id": "KMB",
        "lat": "67.8682632041118"
    },
    {
        "name": "Kirunavaara",
        "lon": "20.19888867602",
        "id": "KIA",
        "lat": "67.8020363155714"
    },
    {
        "name": "Kisa",
        "lon": "15.6341021537083",
        "id": "KISA",
        "lat": "57.984630822724"
    },
    {
        "name": "Kistinge",
        "lon": "12.9140152104547",
        "id": "KST",
        "lat": "56.6385354260995"
    },
    {
        "name": "Kitajaur",
        "lon": "19.9465598597749",
        "id": "KIT",
        "lat": "66.1799036774841"
    },
    {
        "name": "Kjula",
        "lon": "16.6613674262425",
        "id": "KJU",
        "lat": "59.3372524874284"
    },
    {
        "country": "DK",
        "name": "Klampenborg",
        "lon": "12.7001284231991",
        "id": "ZKL",
        "lat": "55.6002314026954"
    },
    {
        "name": "Klenshyttan",
        "lon": "15.1043240753383",
        "id": "KHY",
        "lat": "60.1078690743315"
    },
    {
        "name": "Klevshult",
        "lon": "14.0973170999651",
        "id": "KVH",
        "lat": "57.3515660597905"
    },
    {
        "name": "Klingerud",
        "lon": "13.3608052072485",
        "id": "KUD",
        "lat": "59.4833346144453"
    },
    {
        "name": "Klippan",
        "lon": "13.1300343660845",
        "id": "KL",
        "lat": "56.1306883462262"
    },
    {
        "name": "Klockarbäcken",
        "lon": "20.142122018128",
        "id": "KLBN",
        "lat": "63.8562358940075"
    },
    {
        "name": "Klocksta",
        "lon": "19.1095440472067",
        "id": "KLO",
        "lat": "65.5992901680238"
    },
    {
        "name": "Klövervägen",
        "lon": "17.9738707187",
        "id": "WKLV",
        "lat": "59.3246949567"
    },
    {
        "name": "Knalleland",
        "lon": "12.9425541031624",
        "id": "KNL",
        "lat": "57.7340598291009"
    },
    {
        "name": "Knapptorp",
        "lon": "14.9307248717345",
        "id": "KNP",
        "lat": "59.4841548293922"
    },
    {
        "name": "Knivsta",
        "lon": "17.7870991934937",
        "id": "KN",
        "lat": "59.72540889316"
    },
    {
        "name": "Knäred",
        "lon": "13.311517369642",
        "id": "KNÄ",
        "lat": "56.515529656234"
    },
    {
        "name": "Kode",
        "lon": "11.8509159690078",
        "id": "KDE",
        "lat": "57.9444635485931"
    },
    {
        "name": "Koijuvaara",
        "lon": "20.7310934583307",
        "id": "KAA",
        "lat": "67.0577592829325"
    },
    {
        "country": "DK",
        "name": "Kokkedal",
        "lon": "12.7001284231991",
        "id": "ZOK",
        "lat": "55.6002314026954"
    },
    {
        "name": "Kolbäck",
        "lon": "16.2334494514157",
        "id": "KBÄ",
        "lat": "59.564275066554"
    },
    {
        "name": "Koler",
        "lon": "20.4932155322804",
        "id": "KLR",
        "lat": "65.4957903091537"
    },
    {
        "name": "Kolforsen",
        "lon": "16.8512361943746",
        "id": "KFN",
        "lat": "60.8430828134858"
    },
    {
        "name": "Kolke",
        "lon": "17.2147674312672",
        "id": "KOE",
        "lat": "59.0584195703567"
    },
    {
        "name": "Kolmården",
        "lon": "16.3625273402998",
        "id": "KON",
        "lat": "58.6746981852311"
    },
    {
        "name": "Kolsnäs",
        "lon": "13.140935191423",
        "id": "KNS",
        "lat": "59.8257800154118"
    },
    {
        "country": "NO",
        "name": "Kongsvinger",
        "lon": "12.0048843",
        "id": "NO.KVG",
        "lat": "60.1879047"
    },
    {
        "name": "Kopparberg",
        "lon": "14.9868909700589",
        "id": "KPG",
        "lat": "59.8726345439118"
    },
    {
        "name": "Kopparåsen",
        "lon": "18.5036180143391",
        "id": "KÅ",
        "lat": "68.4262755083439"
    },
    {
        "country": "NO",
        "name": "Kopperå",
        "lon": "12.0974095219406",
        "id": "XKPR",
        "lat": "63.3158078346593"
    },
    {
        "name": "Kornsjö-gränsen",
        "lon": "11.6699047521914",
        "id": "KO",
        "lat": "58.9347611641577"
    },
    {
        "name": "Kornsjø",
        "lon": "11.6591700129",
        "id": "XKO",
        "lat": "58.9413059360"
    },
    {
        "name": "Korpklev",
        "lon": "15.6200099142161",
        "id": "KPKV",
        "lat": "57.931443966058"
    },
    {
        "name": "Korsberga",
        "lon": "15.1231096360717",
        "id": "KBA",
        "lat": "57.3018142981676"
    },
    {
        "name": "Korsnäs",
        "lon": "15.7127183651494",
        "id": "KOÄ",
        "lat": "60.5860974777276"
    },
    {
        "name": "Korsträsk",
        "lon": "20.864579539495",
        "id": "KTÄ",
        "lat": "65.6646889939174"
    },
    {
        "name": "Kortfors",
        "lon": "14.6759731978743",
        "id": "KF",
        "lat": "59.4178398708201"
    },
    {
        "name": "Kosjärv",
        "lon": "22.8414496651117",
        "id": "KOJ",
        "lat": "65.9312756873713"
    },
    {
        "name": "Koskivaara",
        "lon": "20.9844614503564",
        "id": "KVA",
        "lat": "66.6494408225367"
    },
    {
        "name": "Koskullskulle",
        "lon": "20.7326552968731",
        "id": "KOS",
        "lat": "67.1869776717333"
    },
    {
        "name": "Kottla",
        "lon": "18.1800359791",
        "id": "WKOA",
        "lat": "59.3444113776"
    },
    {
        "name": "Kragenäs",
        "lon": "11.2530717948669",
        "id": "KGS",
        "lat": "58.798747829265"
    },
    {
        "name": "Kragstalund",
        "lon": "18.0757384178",
        "id": "XKGL",
        "lat": "59.5103045231"
    },
    {
        "name": "Kramfors",
        "lon": "17.7782368370439",
        "id": "KRF",
        "lat": "62.9290161220317"
    },
    {
        "name": "Krampen",
        "lon": "15.5796650547728",
        "id": "KRN",
        "lat": "59.7425275127314"
    },
    {
        "name": "Krigslida",
        "lon": "18.0655526460568",
        "id": "KDA",
        "lat": "59.108906678367"
    },
    {
        "name": "Kringlan",
        "lon": "17.0549118378735",
        "id": "KRL",
        "lat": "60.9659388504461"
    },
    {
        "name": "Kristianstad C",
        "lon": "14.1508312598767",
        "id": "CR",
        "lat": "56.0322216397822"
    },
    {
        "name": "Kristianstad GBG",
        "lon": "14.156926445001",
        "id": "CRGB",
        "lat": "56.0411947842281"
    },
    {
        "name": "Kristianstads södra",
        "lon": "14.1631117991001",
        "id": "CRS",
        "lat": "56.02165801258"
    },
    {
        "name": "Kristinehamn",
        "lon": "14.1071224321921",
        "id": "KHN",
        "lat": "59.3173987254831"
    },
    {
        "name": "Krogsta",
        "lon": "17.8772598357235",
        "id": "KROG",
        "lat": "59.5933566785282"
    },
    {
        "name": "Krokom",
        "lon": "14.447974654317",
        "id": "KRM",
        "lat": "63.3259726886198"
    },
    {
        "name": "Krokom OJ",
        "lon": "14.4126793423045",
        "id": "KROJ",
        "lat": "63.3384956484847"
    },
    {
        "name": "Krokvik",
        "lon": "20.0667458000565",
        "id": "KV",
        "lat": "67.9312272093201"
    },
    {
        "name": "Kronetorp",
        "lon": "13.0950408285",
        "id": "KOP",
        "lat": "55.6495406426"
    },
    {
        "name": "Krökesbo",
        "lon": "14.5032280170757",
        "id": "KRÖB",
        "lat": "57.7071275160516"
    },
    {
        "name": "Kumla",
        "lon": "15.1409512075195",
        "id": "KLA",
        "lat": "59.1275460398408"
    },
    {
        "name": "Kummelby",
        "lon": "17.9567513620639",
        "id": "KMY",
        "lat": "59.4175674692249"
    },
    {
        "name": "Kungsbacka",
        "lon": "12.079871816645",
        "id": "KB",
        "lat": "57.4895054403297"
    },
    {
        "name": "Kungsgården",
        "lon": "16.6210942637174",
        "id": "KGD",
        "lat": "60.6023521047912"
    },
    {
        "name": "Kungsängen",
        "lon": "17.7528251710459",
        "id": "KÄN",
        "lat": "59.4781227490669"
    },
    {
        "name": "Kungsör",
        "lon": "16.1031022251671",
        "id": "KÖR",
        "lat": "59.4277989116711"
    },
    {
        "name": "Kvarnabo",
        "lon": "12.4750606853",
        "id": "XQO",
        "lat": "58.0559699820"
    },
    {
        "name": "Kvarnsjö",
        "lon": "14.3724828873231",
        "id": "KVÖ",
        "lat": "62.5659238706763"
    },
    {
        "name": "Kvarnängen",
        "lon": "17.9275137013",
        "id": "KNG",
        "lat": "58.9292639871"
    },
    {
        "name": "Kvicksund",
        "lon": "16.3094671410898",
        "id": "KSU",
        "lat": "59.4581350081583"
    },
    {
        "name": "Kvicksund",
        "lon": "16.3206479459126",
        "id": "KSUS",
        "lat": "59.4507746771218"
    },
    {
        "name": "Kvidinge",
        "lon": "13.0461398083144",
        "id": "KVI",
        "lat": "56.1372081756459"
    },
    {
        "name": "Kvillsfors",
        "lon": "15.4956983493283",
        "id": "KVF",
        "lat": "57.4032694566573"
    },
    {
        "name": "Kåbdalis",
        "lon": "19.988721985392",
        "id": "KÅB",
        "lat": "66.1527882321351"
    },
    {
        "name": "Kågeröd",
        "lon": "13.0831120167162",
        "id": "KD",
        "lat": "55.9966866518282"
    },
    {
        "name": "Kållered",
        "lon": "12.0462190913177",
        "id": "KRD",
        "lat": "57.6154757997537"
    },
    {
        "name": "Kårsta",
        "lon": "18.2674158163",
        "id": "XKÅR",
        "lat": "59.6566783946"
    },